STATE,AGE_ADJUSTED_RATE,COUNT,POPULATION,County,County Name,lat,lng,Ratings
AK,174.5,23,28804, Aleutians West Census Area (02016) - 1994+, Aleutians West Census Area ,52.3232697,-174.1596072,1.745
AK,152.2,1824,1490175, Anchorage Municipality (02020) - 1990+, Anchorage Municipality ,61.2180556,-149.9002778,1.5219999999999998
AK,185.5,89,89833, Bethel Census Area (02050) - 1990+, Bethel Census Area ,61.09344600000001,-160.8640773,1.855
AK,198.8,36,24854, Dillingham Census Area (02070) - 1994+, Dillingham Census Area ,59.80677919999999,-157.7242585,1.9880000000000002
AK,149.8,532,500222, Fairbanks North Star Borough (02090) - 1990+, Fairbanks North Star Borough ,64.9526102,-146.4744154,1.4980000000000002
AK,151.5,23,12674, Haines Borough (02100) - 1990+, Haines Borough ,59.1392237,-135,1.515
AK,172.1,23,8507, Hoonah-Angoon Census Area (02105) - 2015+, Hoonah-Angoon Census Area ,58.31765049999999,-136.0390896,1.7209999999999999
AK,163.4,236,162125, Juneau City and Borough (02110) - 1990+, Juneau City and Borough ,58.3019444,-134.4197221,1.6340000000000001
AK,158.4,531,289583, Kenai Peninsula Borough (02122) - 1990+, Kenai Peninsula Borough ,60.0858486,-151.382264,1.584
AK,139.3,100,69025, Ketchikan Gateway Borough (02130) - 1990+, Ketchikan Gateway Borough ,55.5103345,-131.389286,1.393
AK,169.0,85,68988, Kodiak Island Borough (02150) - 1990+, Kodiak Island Borough ,57.53693430000001,-153.2659352,1.69
AK,295.4,19,8107, Lake and Peninsula Borough (02164) - 1994+, Lake and Peninsula Borough ,58.0458356,-156.5982286,2.9539999999999997
AK,169.0,706,505589, Matanuska-Susitna Borough (02170) - 1990+, Matanuska-Susitna Borough ,62.2599347,-150.1729153,1.69
AK,235.0,73,49462, Nome Census Area (02180) - 1990+, Nome Census Area ,64.8329974,-164.256602,2.35
AK,246.5,66,48899, North Slope Borough (02185) - 1990+, North Slope Borough ,69.05787579999999,-152.8628274,2.465
AK,128.2,34,38723, Northwest Arctic Borough (02188) - 1990+, Northwest Arctic Borough ,67.2872981,-160.0342624,1.2819999999999998
AK,109.4,18,13053, Petersburg Census Area (02195) - 2015+, Petersburg Census Area ,56.8124267,-132.9554472,1.094
AK,160.7,45,25950, Prince of Wales-Hyder Census Area (02198) - 2015+, Prince of Wales-Hyder Census Area ,55.3242244,-132.6044581,1.607
AK,141.5,72,44014, Sitka City and Borough (02220) - 1990+, Sitka City and Borough ,57.0530556,-135.33,1.415
AK,189.0,60,34444, Southeast Fairbanks Census Area (02240) - 1990+, Southeast Fairbanks Census Area ,63.9603869,-143.6296999,1.89
AK,159.3,72,47115, Valdez-Cordova Census Area (02261) - 1990+, Valdez-Cordova Census Area ,61.4787707,-144.1147195,1.5930000000000002
AK,232.9,46,40661, Wade Hampton Census Area (02270) - 1990+, Wade Hampton Census Area ,62.1458336,-162.891919,2.329
AK,158.4,24,9918, Wrangell Borough (02275) - 2015+, Wrangell Borough ,56.4708333,-132.3766666,1.584
AK,232.3,19,6162, Wrangell-Petersburg Census Area (02280) - 1990-2014, Wrangell-Petersburg Census Area ,56.8124267,-132.9554472,2.323
AK,278.2,78,27313, Yukon-Koyukuk Census Area (02290) - 1990+, Yukon-Koyukuk Census Area ,65.8443666,-153.4302993,2.782
AL,178.3,556,275112, Autauga County (01001), Autauga County ,32.5791817,-86.49965460000001,1.7830000000000001
AL,165.3,2331,1017401, Baldwin County (01003), Baldwin County ,30.6010744,-87.77633329999999,1.653
AL,179.2,301,130973, Barbour County (01005), Barbour County ,31.8172896,-85.35496499999999,1.7919999999999998
AL,189.0,251,112750, Bibb County (01007), Bibb County ,32.9562798,-87.14228949999999,1.89
AL,175.3,653,287998, Blount County (01009), Blount County ,34.0145152,-86.49965460000001,1.7530000000000001
AL,227.7,143,52173, Bullock County (01011), Bullock County ,32.0573536,-85.7256372,2.2769999999999997
AL,170.3,244,100820, Butler County (01013), Butler County ,31.6760284,-86.6611083,1.703
AL,179.6,1309,577754, Calhoun County (01015), Calhoun County ,33.7701576,-85.80766,1.796
AL,190.9,452,169659, Chambers County (01017), Chambers County ,32.9028048,-85.35496499999999,1.909
AL,201.8,390,129257, Cherokee County (01019), Cherokee County ,34.1665322,-85.684578,2.0180000000000002
AL,180.4,476,219133, Chilton County (01021), Chilton County ,32.944392,-86.6611083,1.804
AL,145.7,149,65930, Choctaw County (01023), Choctaw County ,32.0716631,-88.24611829999999,1.4569999999999999
AL,160.0,274,123136, Clarke County (01025), Clarke County ,31.7002461,-87.77633329999999,1.6
AL,161.2,158,67017, Clay County (01027), Clay County ,33.279527,-85.84862360000001,1.6119999999999999
AL,168.9,179,74677, Cleburne County (01029), Cleburne County ,33.6261707,-85.52002399999999,1.689
AL,168.0,529,255206, Coffee County (01031), Coffee County ,31.4751172,-86.0121573,1.68
AL,173.5,681,272247, Colbert County (01033), Colbert County ,34.7117567,-87.89424509999999,1.735
AL,172.3,168,63206, Conecuh County (01035), Conecuh County ,31.501571,-86.9824288,1.723
AL,169.2,147,54815, Coosa County (01037), Coosa County ,32.8897772,-86.2196937,1.692
AL,192.8,535,187579, Covington County (01039), Covington County ,31.3066438,-86.49965460000001,1.9280000000000002
AL,211.1,198,69353, Crenshaw County (01041), Crenshaw County ,31.6671872,-86.3376761,2.1109999999999998
AL,178.2,964,408811, Cullman County (01043), Cullman County ,34.2011537,-86.8220341,1.7819999999999998
AL,179.2,540,247093, Dale County (01045), Dale County ,31.4645298,-85.684578,1.7919999999999998
AL,209.8,531,203820, Dallas County (01047), Dallas County ,32.2332138,-87.14228949999999,2.0980000000000003
AL,160.2,701,355527, DeKalb County (01049), DeKalb County ,34.5211397,-85.684578,1.6019999999999999
AL,179.7,791,404740, Elmore County (01051), Elmore County ,32.5647083,-86.0121573,1.797
AL,199.4,488,187653, Escambia County (01053), Escambia County ,31.1394734,-87.14228949999999,1.994
AL,188.6,1300,516079, Etowah County (01055), Etowah County ,34.0455341,-86.05296039999999,1.886
AL,204.9,251,83309, Fayette County (01057), Fayette County ,33.6871392,-87.77633329999999,2.049
AL,170.6,331,157898, Franklin County (01059), Franklin County ,34.3967457,-87.6186379,1.706
AL,182.2,349,132823, Geneva County (01061), Geneva County ,31.0990456,-85.684578,1.8219999999999998
AL,156.8,97,42644, Greene County (01063), Greene County ,32.9718107,-87.9334803,1.568
AL,183.7,183,74956, Hale County (01065), Hale County ,32.7859102,-87.6186379,1.837
AL,188.5,241,85543, Henry County (01067), Henry County ,31.4469377,-85.1894045,1.885
AL,176.6,1161,520674, Houston County (01069), Houston County ,31.1318686,-85.31362179999999,1.766
AL,200.5,727,261693, Jackson County (01071), Jackson County ,34.7090388,-86.0121573,2.005
AL,179.1,6943,3299356, Jefferson County (01073), Jefferson County ,33.4914122,-86.9824288,1.791
AL,193.5,207,70031, Lamar County (01075), Lamar County ,33.6923649,-88.0900762,1.935
AL,164.8,1063,463244, Lauderdale County (01077), Lauderdale County ,34.8840876,-87.658113,1.6480000000000001
AL,187.9,410,166473, Lawrence County (01079), Lawrence County ,34.567428,-87.30161319999999,1.879
AL,194.2,1298,784323, Lee County (01081), Lee County ,32.5888702,-85.39627689999999,1.942
AL,153.0,793,457994, Limestone County (01083), Limestone County ,34.78000720000001,-86.9423801,1.53
AL,201.2,139,51873, Lowndes County (01085), Lowndes County ,32.221464,-86.6611083,2.012
AL,196.3,251,96855, Macon County (01087), Macon County ,32.3731182,-85.684578,1.963
AL,156.2,3104,1767915, Madison County (01089), Madison County ,34.72397309999999,-86.49965460000001,1.5619999999999998
AL,186.2,253,98736, Marengo County (01091), Marengo County ,32.2459085,-87.77633329999999,1.8619999999999999
AL,186.6,416,150288, Marion County (01093), Marion County ,34.0441174,-87.77633329999999,1.8659999999999999
AL,180.7,1057,473985, Marshall County (01095), Marshall County ,34.3652297,-86.3376761,1.807
AL,183.7,4458,2073749, Mobile County (01097), Mobile County ,30.6082227,-88.24611829999999,1.837
AL,171.0,262,108662, Monroe County (01099), Monroe County ,31.5119068,-87.460397,1.71
AL,172.8,2164,1137114, Montgomery County (01101), Montgomery County ,32.2077447,-86.17517590000001,1.7280000000000002
AL,173.1,1297,596094, Morgan County (01103), Morgan County ,34.4240875,-86.86218269999999,1.7309999999999999
AL,178.3,113,48294, Perry County (01105), Perry County ,32.598888,-87.30161319999999,1.7830000000000001
AL,152.8,214,100855, Pickens County (01107), Pickens County ,33.3339954,-88.0900762,1.528
AL,194.8,343,167388, Pike County (01109), Pike County ,31.8395163,-86.0121573,1.9480000000000002
AL,181.9,293,112692, Randolph County (01111), Randolph County ,33.2681523,-85.52002399999999,1.819
AL,199.8,614,292417, Russell County (01113), Russell County ,32.3552497,-85.1894045,1.9980000000000002
AL,132.6,1468,1044707, Shelby County (01117), Shelby County ,33.3039292,-86.6611083,1.3259999999999998
AL,183.6,940,433645, St. Clair County (01115), St. Clair County ,33.6530112,-86.3376761,1.8359999999999999
AL,168.2,140,65631, Sumter County (01119), Sumter County ,32.6155551,-88.24611829999999,1.682
AL,189.4,976,404508, Talladega County (01121), Talladega County ,33.4231716,-86.1344697,1.8940000000000001
AL,188.5,548,203709, Tallapoosa County (01123), Tallapoosa County ,32.9201244,-85.84862360000001,1.885
AL,161.9,1617,1023240, Tuscaloosa County (01125), Tuscaloosa County ,33.3227653,-87.460397,1.619
AL,219.3,971,324520, Walker County (01127), Walker County ,33.8563605,-87.30161319999999,2.193
AL,212.8,232,83735, Washington County (01129), Washington County ,31.3422346,-88.24611829999999,2.128
AL,205.0,149,54571, Wilcox County (01131), Wilcox County ,32.0105439,-87.3413599,2.05
AL,159.7,285,119903, Winston County (01133), Winston County ,34.1690087,-87.3413599,1.597
AR,195.7,247,91604, Arkansas County (05001), Arkansas County ,34.2354138,-91.28910359999999,1.9569999999999999
AR,212.4,304,103919, Ashley County (05003), Ashley County ,33.1565939,-91.7538817,2.124
AR,187.8,782,205459, Baxter County (05005), Baxter County ,36.3261815,-92.38136209999999,1.8780000000000001
AR,157.0,2009,1261778, Benton County (05007), Benton County ,36.2661518,-94.479976,1.57
AR,184.2,489,186272, Boone County (05009), Boone County ,36.3118662,-93.0175712,1.8419999999999999
AR,208.5,162,54972, Bradley County (05011), Bradley County ,33.5081368,-92.2236667,2.085
AR,244.0,94,25928, Calhoun County (05013), Calhoun County ,33.5020885,-92.539603,2.44
AR,160.9,346,139002, Carroll County (05015), Carroll County ,36.2987495,-93.5003454,1.609
AR,232.0,190,55053, Chicot County (05017), Chicot County ,33.3419551,-91.28910359999999,2.32
AR,170.1,226,112450, Clark County (05019), Clark County ,34.0232374,-93.17796589999999,1.7009999999999998
AR,246.9,289,75940, Clay County (05021), Clay County ,36.3492244,-90.37483540000001,2.469
AR,181.2,415,126827, Cleburne County (05023), Cleburne County ,35.4605769,-92.0665197,1.8119999999999998
AR,185.3,110,41627, Cleveland County (05025), Cleveland County ,33.86580070000001,-92.2236667,1.8530000000000002
AR,177.7,269,120203, Columbia County (05027), Columbia County ,33.1285176,-93.17796589999999,1.777
AR,185.6,276,104725, Conway County (05029), Conway County ,35.2727492,-92.6983868,1.8559999999999999
AR,176.5,945,521591, Craighead County (05031), Craighead County ,35.8260959,-90.6773046,1.765
AR,188.7,704,310632, Crawford County (05033), Crawford County ,35.5762761,-94.315422,1.8869999999999998
AR,228.6,589,246470, Crittenden County (05035), Crittenden County ,35.3021443,-90.37483540000001,2.286
AR,235.2,264,85836, Cross County (05037), Cross County ,35.2998913,-90.8294002,2.352
AR,225.1,128,37871, Dallas County (05039), Dallas County ,34.0346533,-92.6983868,2.251
AR,154.0,126,60423, Desha County (05041), Desha County ,33.8773585,-91.44346900000001,1.54
AR,195.2,223,92865, Drew County (05043), Drew County ,33.5156463,-91.7538817,1.952
AR,172.5,956,606457, Faulkner County (05045), Faulkner County ,35.1035858,-92.38136209999999,1.725
AR,195.9,243,88995, Franklin County (05047), Franklin County ,35.5927966,-93.8248241,1.959
AR,189.0,201,60599, Fulton County (05049), Fulton County ,36.3797374,-91.7928402,1.89
AR,177.4,1397,489978, Garland County (05051), Garland County ,34.5559285,-93.17796589999999,1.774
AR,191.8,222,90286, Grant County (05053), Grant County ,34.2628015,-92.4208713,1.9180000000000001
AR,179.4,469,220952, Greene County (05055), Greene County ,36.1314931,-90.563609,1.794
AR,158.3,230,110776, Hempstead County (05057), Hempstead County ,33.6530112,-93.66232389999999,1.5830000000000002
AR,185.6,421,167415, Hot Spring County (05059), Hot Spring County ,34.3393795,-92.97755579999999,1.8559999999999999
AR,189.6,168,67163, Howard County (05061), Howard County ,34.1318213,-94.028678,1.896
AR,171.8,408,185523, Independence County (05063), Independence County ,35.8174139,-91.5983959,1.7180000000000002
AR,162.4,195,67608, Izard County (05065), Izard County ,36.1610924,-91.9099238,1.624
AR,226.1,258,87046, Jackson County (05067), Jackson County ,35.6479574,-91.13530200000001,2.261
AR,199.9,881,357208, Jefferson County (05069), Jefferson County ,34.227351,-91.9099238,1.999
AR,175.7,274,130643, Johnson County (05071), Johnson County ,35.6026275,-93.5003454,1.757
AR,148.4,86,35179, Lafayette County (05073), Lafayette County ,33.2511695,-93.62178019999999,1.484
AR,217.5,267,83967, Lawrence County (05075), Lawrence County ,35.9969735,-91.13530200000001,2.175
AR,184.4,117,48019, Lee County (05077), Lee County ,34.7712669,-90.8294002,1.844
AR,190.7,151,69155, Lincoln County (05079), Lincoln County ,33.9185116,-91.714958,1.9069999999999998
AR,148.0,135,62498, Little River County (05081), Little River County ,33.6808926,-94.19234000000002,1.48
AR,196.1,303,109076, Logan County (05083), Logan County ,35.2475011,-93.66232389999999,1.9609999999999999
AR,193.1,703,358086, Lonoke County (05085), Lonoke County ,34.7591647,-91.9099238,1.931
AR,189.5,201,79581, Madison County (05087), Madison County ,35.9466415,-93.66232389999999,1.895
AR,188.3,289,81912, Marion County (05089), Marion County ,36.3194702,-92.6983868,1.883
AR,188.6,493,218665, Miller County (05091), Miller County ,33.3335556,-93.86553029999999,1.886
AR,220.5,535,217614, Mississippi County (05093), Mississippi County ,35.8279728,-90.0746767,2.205
AR,279.3,161,37033, Monroe County (05095), Monroe County ,34.5918747,-91.13530200000001,2.793
AR,172.2,136,45293, Montgomery County (05097), Montgomery County ,34.5424074,-93.66232389999999,1.722
AR,205.8,128,42649, Nevada County (05099), Nevada County ,33.6621386,-93.33889169999999,2.0580000000000003
AR,185.8,122,39488, Newton County (05101), Newton County ,35.9603994,-93.17796589999999,1.858
AR,205.9,358,121875, Ouachita County (05103), Ouachita County ,33.5828512,-92.9375739,2.059
AR,196.2,144,51588, Perry County (05105), Perry County ,34.96032,-92.8976254,1.962
AR,215.8,266,97586, Phillips County (05107), Phillips County ,34.4611206,-90.86751339999999,2.158
AR,183.9,142,54487, Pike County (05109), Pike County ,34.1876975,-93.66232389999999,1.839
AR,230.7,369,120481, Poinsett County (05111), Poinsett County ,35.6078586,-90.6393702,2.307
AR,195.7,305,101113, Polk County (05113), Polk County ,34.5268097,-94.15137639999999,1.9569999999999999
AR,184.1,662,316802, Pope County (05115), Pope County ,35.440627,-93.0175712,1.841
AR,179.1,119,41518, Prairie County (05117), Prairie County ,34.7636336,-91.5983959,1.791
AR,170.5,3738,1966179, Pulaski County (05119), Pulaski County ,34.75386150000001,-92.2236667,1.705
AR,203.3,257,87693, Randolph County (05121), Randolph County ,36.3457918,-90.9820668,2.033
AR,171.8,1235,581961, Saline County (05125), Saline County ,34.5708215,-92.539603,1.7180000000000002
AR,187.9,144,52803, Scott County (05127), Scott County ,34.8854732,-93.9878427,1.879
AR,189.1,134,39644, Searcy County (05129), Searcy County ,35.9721,-92.6983868,1.891
AR,179.6,1324,636765, Sebastian County (05131), Sebastian County ,35.2260397,-94.315422,1.796
AR,169.9,156,86197, Sevier County (05133), Sevier County ,34.0346222,-94.27436279999999,1.699
AR,189.5,277,84892, Sharp County (05135), Sharp County ,36.16759740000001,-91.44346900000001,1.895
AR,176.9,275,133542, St. Francis County (05123), St. Francis County ,34.9926533,-90.7152749,1.7690000000000001
AR,177.3,196,62197, Stone County (05137), Stone County ,35.8075142,-92.2236667,1.7730000000000001
AR,223.7,587,200142, Union County (05139), Union County ,33.1431092,-92.539603,2.237
AR,155.2,237,83775, Van Buren County (05141), Van Buren County ,35.6266232,-92.539603,1.5519999999999998
AR,158.0,1565,1121696, Washington County (05143), Washington County ,35.9307703,-94.15137639999999,1.58
AR,192.7,884,393845, White County (05145), White County ,35.2900612,-91.7538817,1.9269999999999998
AR,213.5,113,33842, Woodruff County (05147), Woodruff County ,35.1215846,-91.13530200000001,2.135
AR,192.4,265,108155, Yell County (05149), Yell County ,35.0810824,-93.33889169999999,1.9240000000000002
AZ,127.1,481,358131, Apache County (04001), Apache County ,35.5313224,-109.3783206,1.271
AZ,159.5,1472,634234, Cochise County (04003), Cochise County ,31.82845799999999,-109.949686,1.595
AZ,121.8,745,694942, Coconino County (04005), Coconino County ,35.6647545,-111.4752851,1.218
AZ,151.8,743,266131, Gila County (04007), Gila County ,33.6370567,-110.5215459,1.518
AZ,146.1,275,188775, Graham County (04009), Graham County ,33.076805,-109.7591675,1.4609999999999999
AZ,135.9,61,46943, Greenlee County (04011), Greenlee County ,33.2405598,-109.2831531,1.359
AZ,132.3,289,102940, La Paz County (04012) - 1994+, La Paz County ,34.0061091,-113.9536466,1.3230000000000002
AZ,139.6,31764,20877759, Maricopa County (04013), Maricopa County ,33.2917968,-112.4291464,1.396
AZ,187.6,3634,1023928, Mohave County (04015), Mohave County ,35.2143346,-113.7632828,1.876
AZ,137.1,872,540224, Navajo County (04017), Navajo County ,35.4019765,-110.1402594,1.371
AZ,140.4,9528,5056975, Pima County (04019), Pima County ,32.057499,-111.6660725,1.4040000000000001
AZ,130.5,3403,2037121, Pinal County (04021), Pinal County ,32.8162061,-111.2845025,1.305
AZ,121.1,336,233400, Santa Cruz County (04023), Santa Cruz County ,31.5986127,-110.8076084,1.2109999999999999
AZ,156.2,3363,1105656, Yavapai County (04025), Yavapai County ,34.6463981,-112.4291464,1.5619999999999998
AZ,114.0,1496,1029604, Yuma County (04027) - 1994+, Yuma County ,32.6527533,-113.9536466,1.14
CA,134.9,11470,8131992, Alameda County (06001), Alameda County ,37.6016892,-121.7195459,1.349
CA,148.9,509,186389, Amador County (06005), Amador County ,38.3488921,-120.7740931,1.489
CA,167.6,2469,1125782, Butte County (06007), Butte County ,39.6253952,-121.5370003,1.676
CA,152.3,622,225235, Calaveras County (06009), Calaveras County ,38.1960477,-120.6805037,1.5230000000000001
CA,136.4,157,106960, Colusa County (06011), Colusa County ,39.1040645,-122.2653887,1.364
CA,139.3,9043,5609779, Contra Costa County (06013), Contra Costa County ,37.8534093,-121.9017954,1.393
CA,164.7,290,137111, Del Norte County (06015), Del Norte County ,41.7076287,-123.9659708,1.6469999999999998
CA,139.6,1827,924122, El Dorado County (06017), El Dorado County ,38.74263759999999,-120.4357631,1.396
CA,145.0,6516,4848280, Fresno County (06019), Fresno County ,36.9858984,-119.2320784,1.45
CA,164.7,269,139266, Glenn County (06021), Glenn County ,39.6437813,-122.4467238,1.6469999999999998
CA,167.0,1384,676876, Humboldt County (06023), Humboldt County ,40.7450055,-123.8695086,1.67
CA,127.4,1097,895859, Imperial County (06025), Imperial County ,33.0113694,-115.4733554,1.274
CA,154.1,228,90798, Inyo County (06027), Inyo County ,36.3091865,-117.5495846,1.541
CA,156.7,5758,4381060, Kern County (06029), Kern County ,35.4937274,-118.8596804,1.567
CA,155.8,924,749423, Kings County (06031), Kings County ,36.0988489,-119.8815203,1.558
CA,189.8,936,320167, Lake County (06033), Lake County ,39.08396440000001,-122.8084496,1.8980000000000001
CA,139.3,235,157248, Lassen County (06035), Lassen County ,40.5394389,-120.7120023,1.393
CA,138.8,71886,50382849, Los Angeles County (06037), Los Angeles County ,34.0522265,-118.2436596,1.3880000000000001
CA,150.7,1166,768863, Madera County (06039), Madera County ,37.251926,-119.6962677,1.507
CA,116.6,2328,1300262, Marin County (06041), Marin County ,38.083403,-122.7633036,1.166
CA,144.5,226,88035, Mariposa County (06043), Mariposa County ,37.4893626,-119.9679294,1.445
CA,158.9,993,436581, Mendocino County (06045), Mendocino County ,39.5500194,-123.438353,1.589
CA,159.6,1832,1332809, Merced County (06047), Merced County ,37.2009788,-120.7120023,1.5959999999999999
CA,156.6,121,45060, Modoc County (06049), Modoc County ,41.4565165,-120.629366,1.5659999999999998
CA,88.5,65,70696, Mono County (06051), Mono County ,37.9218608,-118.9528645,0.885
CA,130.2,2813,2157519, Monterey County (06053), Monterey County ,36.3136201,-121.3541631,1.3019999999999998
CA,154.3,1475,702940, Napa County (06055), Napa County ,38.5024689,-122.2653887,1.5430000000000001
CA,140.7,1200,493717, Nevada County (06057), Nevada County ,39.1346666,-121.1710389,1.4069999999999998
CA,133.8,23002,15742950, Orange County (06059), Orange County ,33.7174708,-117.8311428,1.338
CA,144.7,3707,1872682, Placer County (06061), Placer County ,39.0915751,-120.8039474,1.4469999999999998
CA,163.3,278,93585, Plumas County (06063), Plumas County ,39.99268319999999,-120.8039474,1.633
CA,146.1,18138,11753713, Riverside County (06065), Riverside County ,33.9532966,-117.3961192,1.4609999999999999
CA,159.2,12503,7466890, Sacramento County (06067), Sacramento County ,38.47467,-121.3541631,1.5919999999999999
CA,128.0,375,292811, San Benito County (06069), San Benito County ,36.5760883,-120.9876321,1.28
CA,159.6,14811,10589335, San Bernardino County (06071), San Bernardino County ,34.9592083,-116.419389,1.5959999999999999
CA,146.5,25177,16382050, San Diego County (06073), San Diego County ,32.7157305,-117.1610966,1.465
CA,132.7,6862,4306754, San Francisco County (06075), San Francisco County ,37.7749295,-122.4194155,1.327
CA,161.4,5631,3610788, San Joaquin County (06077), San Joaquin County ,37.9175935,-121.1710389,1.614
CA,139.0,2658,1399014, San Luis Obispo County (06079), San Luis Obispo County ,35.3102296,-120.4357631,1.39
CA,124.1,5709,3809142, San Mateo County (06081), San Mateo County ,37.4337342,-122.4014193,1.2409999999999999
CA,137.2,3445,2206984, Santa Barbara County (06083), Santa Barbara County ,34.4208321,-119.6982057,1.3719999999999999
CA,123.5,12155,9540731, Santa Clara County (06085), Santa Clara County ,37.3336581,-121.8907041,1.235
CA,130.6,1994,1363512, Santa Cruz County (06087), Santa Cruz County ,37.0453988,-121.9579578,1.306
CA,184.7,2394,893787, Shasta County (06089), Shasta County ,40.7908864,-121.8474493,1.847
CA,113.0,36,14971, Sierra County (06091), Sierra County ,39.5532845,-120.2512728,1.13
CA,173.0,633,217510, Siskiyou County (06093), Siskiyou County ,41.7743261,-122.5770126,1.73
CA,166.6,4053,2169789, Solano County (06095), Solano County ,38.3104969,-121.9017954,1.666
CA,146.7,4866,2500887, Sonoma County (06097), Sonoma County ,38.5779555,-122.9888319,1.4669999999999999
CA,170.2,4474,2670411, Stanislaus County (06099), Stanislaus County ,37.5090711,-120.9876321,1.702
CA,150.9,834,477099, Sutter County (06101), Sutter County ,39.0219764,-121.6739371,1.5090000000000001
CA,161.8,697,315846, Tehama County (06103), Tehama County ,40.0982197,-122.174605,1.618
CA,140.8,163,65200, Trinity County (06105), Trinity County ,40.6329485,-123.0622553,1.4080000000000001
CA,141.7,2811,2289294, Tulare County (06107), Tulare County ,36.1341739,-118.8596804,1.4169999999999998
CA,156.3,726,269121, Tuolumne County (06109), Tuolumne County ,38.029655,-119.9740534,1.5630000000000002
CA,141.2,6678,4228192, Ventura County (06111), Ventura County ,34.3704884,-119.1390642,1.412
CA,145.9,1432,1060845, Yolo County (06113), Yolo County ,38.7646021,-121.9017954,1.459
CA,197.3,687,372536, Yuba County (06115), Yuba County ,39.2547027,-121.3998995,1.973
CO,152.8,2971,2443853, Adams County (08001) - 2002+, Adams County ,39.8398269,-104.1930918,1.528
CO,141.0,113,81741, Alamosa County (08003), Alamosa County ,37.654039,-105.876004,1.41
CO,131.0,3953,3140347, Arapahoe County (08005), Arapahoe County ,39.62031,-104.332644,1.31
CO,125.3,124,62993, Archuleta County (08007), Archuleta County ,37.1604318,-107.0067031,1.253
CO,156.5,52,17887, Baca County (08009), Baca County ,37.394731,-102.5298028,1.565
CO,170.7,67,28911, Bent County (08011), Bent County ,38.0036339,-103.0817903,1.7069999999999999
CO,120.1,1912,1589320, Boulder County (08013) - 2002+, Boulder County ,40.1512114,-105.5005483,1.2009999999999998
CO,135.9,431,321480, Broomfield County (08014) - 2002+, Broomfield County ,39.9205411,-105.0866504,1.359
CO,141.6,223,94151, Chaffee County (08015), Chaffee County ,38.7536679,-106.2522143,1.416
CO,144.1,20,9260, Cheyenne County (08017), Cheyenne County ,38.8002562,-102.6216211,1.4409999999999998
CO,111.2,60,46302, Clear Creek County (08019), Clear Creek County ,39.6904464,-105.6412527,1.112
CO,137.3,72,40712, Conejos County (08021), Conejos County ,37.2689711,-106.2522143,1.3730000000000002
CO,129.3,42,18152, Costilla County (08023), Costilla County ,37.2049596,-105.5005483,1.2930000000000001
CO,132.5,40,27636, Crowley County (08025), Crowley County ,38.2498631,-103.8216261,1.325
CO,139.2,61,22513, Custer County (08027), Custer County ,38.0615578,-105.3131185,1.392
CO,165.7,412,151116, Delta County (08029), Delta County ,38.8531357,-107.763621,1.6569999999999998
CO,149.9,4642,3400105, Denver County (08031), Denver County ,39.7392358,-104.990251,1.499
CO,133.6,19,10100, Dolores County (08033), Dolores County ,37.7530272,-108.5225709,1.3359999999999999
CO,113.9,1474,1606526, Douglas County (08035), Douglas County ,39.2587106,-104.9388853,1.139
CO,75.5,161,269647, Eagle County (08037), Eagle County ,39.576406,-106.7234639,0.755
CO,142.4,4514,3382229, El Paso County (08041), El Paso County ,38.9108325,-104.4723301,1.4240000000000002
CO,114.9,154,123068, Elbert County (08039), Elbert County ,39.35370040000001,-104.1930918,1.149
CO,157.6,557,233299, Fremont County (08043), Fremont County ,38.5306514,-105.5005483,1.5759999999999998
CO,127.6,341,289892, Garfield County (08045), Garfield County ,39.6584775,-107.763621,1.276
CO,119.6,38,29032, Gilpin County (08047), Gilpin County ,39.8770159,-105.4536718,1.196
CO,97.3,75,74117, Grand County (08049), Grand County ,40.0727382,-106.0640179,0.973
CO,113.7,78,81093, Gunnison County (08051), Gunnison County ,38.6437083,-107.0067031,1.137
CO,122.3,92,32490, Huerfano County (08055), Huerfano County ,37.6125984,-104.9388853,1.2229999999999999
CO,159.9,18,6809, Jackson County (08057), Jackson County ,40.6819242,-106.2522143,1.599
CO,133.0,4456,2824158, Jefferson County (08059) - 2002+, Jefferson County ,39.5800298,-105.2662931,1.33
CO,258.9,32,6865, Kiowa County (08061), Kiowa County ,38.3769671,-102.7135121,2.589
CO,123.9,69,39259, Kit Carson County (08063), Kit Carson County ,39.3844507,-102.5298028,1.239
CO,122.4,384,272483, La Plata County (08067), La Plata County ,37.2125857,-107.763621,1.224
CO,141.5,46,37364, Lake County (08065), Lake County ,39.1941167,-106.2992912,1.415
CO,132.0,2387,1656547, Larimer County (08069), Larimer County ,40.6955572,-105.5943388,1.32
CO,153.6,175,70784, Las Animas County (08071), Las Animas County ,37.2994909,-104.1001326,1.536
CO,144.8,52,27563, Lincoln County (08073), Lincoln County ,39.0457549,-103.3587288,1.4480000000000002
CO,149.4,216,108386, Logan County (08075), Logan County ,40.7056181,-102.989615,1.494
CO,149.5,1489,744096, Mesa County (08077), Mesa County ,38.9585381,-108.6175626,1.495
CO,142.2,108,65234, Moffat County (08081), Moffat County ,40.6138379,-108.2377519,1.422
CO,144.8,279,128929, Montezuma County (08083), Montezuma County ,37.3257517,-108.6175626,1.4480000000000002
CO,144.2,455,204680, Montrose County (08085), Montrose County ,38.468304,-108.1428669,1.442
CO,163.4,277,140964, Morgan County (08087), Morgan County ,40.2989226,-103.7289167,1.6340000000000001
CO,140.3,192,91673, Otero County (08089), Otero County ,37.9397663,-103.6362715,1.403
CO,87.1,33,23330, Ouray County (08091), Ouray County ,38.2016133,-107.763621,0.871
CO,98.7,110,84586, Park County (08093), Park County ,39.0897928,-105.5943388,0.987
CO,122.6,42,21689, Phillips County (08095), Phillips County ,40.53713339999999,-102.3463875,1.226
CO,70.5,77,89062, Pitkin County (08097), Pitkin County ,39.159101,-106.8178377,0.705
CO,202.5,151,60443, Prowers County (08099), Prowers County ,37.84337560000001,-102.2547919,2.025
CO,151.8,1653,817039, Pueblo County (08101), Pueblo County ,38.2528534,-104.4723301,1.518
CO,140.7,53,32738, Rio Blanco County (08103), Rio Blanco County ,39.9814297,-108.2377519,1.4069999999999998
CO,127.9,106,57186, Rio Grande County (08105), Rio Grande County ,37.5749508,-106.4405872,1.2790000000000001
CO,97.1,113,122250, Routt County (08107), Routt County ,40.4771623,-107.1011931,0.971
CO,114.9,57,31740, Saguache County (08109), Saguache County ,38.0019623,-106.3463791,1.149
CO,82.0,35,39272, San Miguel County (08113), San Miguel County ,37.9781237,-108.1428669,0.82
CO,156.1,32,11786, Sedgwick County (08115), Sedgwick County ,40.8568843,-102.3463875,1.561
CO,64.6,80,149874, Summit County (08117), Summit County ,39.5911871,-106.0640179,0.6459999999999999
CO,123.1,194,118835, Teller County (08119), Teller County ,38.86115789999999,-105.1726816,1.2309999999999999
CO,136.3,52,24032, Washington County (08121), Washington County ,40.063745,-102.989615,1.3630000000000002
CO,145.3,1890,1431435, Weld County (08123) - 2002+, Weld County ,40.3920718,-104.7158226,1.453
CO,144.2,93,50462, Yuma County (08125), Yuma County ,40.1448234,-102.2547919,1.442
CT,130.4,7502,4717906, Fairfield County (09001), Fairfield County ,41.2559654,-73.37086959999999,1.304
CT,145.7,8460,4478676, Hartford County (09003), Hartford County ,41.7924343,-72.8042797,1.4569999999999999
CT,143.3,1984,920928, Litchfield County (09005), Litchfield County ,41.7866294,-73.2765361,1.433
CT,147.3,1759,819315, Middlesex County (09007), Middlesex County ,41.46985050000001,-72.4731529,1.473
CT,149.0,8353,4301962, New Haven County (09009), New Haven County ,41.3266911,-72.8042797,1.49
CT,154.4,2741,1350601, New London County (09011), New London County ,41.5185189,-72.0468164,1.544
CT,138.2,1199,757205, Tolland County (09013), Tolland County ,41.8418987,-72.37846789999999,1.382
CT,172.4,1212,583168, Windham County (09015), Windham County ,41.8275622,-72.0468164,1.724
DC,164.2,5358,3370464, District of Columbia (11001), District of Columbia ,38.9071923,-77.0368707,1.642
DE,177.7,1846,864589, Kent County (10001), Kent County ,39.1440612,-75.4344727,1.777
DE,165.5,5246,2764714, New Castle County (10003), New Castle County ,39.5392979,-75.667356,1.655
DE,163.1,3004,1074638, Sussex County (10005), Sussex County ,38.65308410000001,-75.4344727,1.631
FL,169.4,2230,1298281, Alachua County (12001), Alachua County ,29.6579549,-82.3017728,1.694
FL,186.5,274,137572, Baker County (12003), Baker County ,30.3931168,-82.3017728,1.865
FL,148.6,1699,901728, Bay County (12005), Bay County ,30.1805306,-85.684578,1.486
FL,194.2,348,133968, Bradford County (12007), Bradford County ,29.97238179999999,-82.1713632,1.942
FL,175.6,8414,2837483, Brevard County (12009), Brevard County ,28.263933,-80.7214417,1.756
FL,145.7,17158,9431548, Broward County (12011), Broward County ,26.190096,-80.365865,1.4569999999999999
FL,199.7,190,72210, Calhoun County (12013), Calhoun County ,30.3475302,-85.1894045,1.9969999999999999
FL,144.2,3024,864465, Charlotte County (12015), Charlotte County ,26.8946009,-81.909826,1.442
FL,181.7,2827,706336, Citrus County (12017), Citrus County ,28.8848842,-82.5185837,1.817
FL,177.0,1995,1016027, Clay County (12019), Clay County ,29.9943564,-81.77870209999999,1.77
FL,109.9,4081,1780188, Collier County (12021), Collier County ,26.069985,-81.42789839999999,1.099
FL,209.6,957,342438, Columbia County (12023), Columbia County ,30.1812696,-82.605118,2.096
FL,145.7,384,179412, DeSoto County (12027), DeSoto County ,27.2142078,-81.77870209999999,1.4569999999999999
FL,196.7,263,81570, Dixie County (12029), Dixie County ,29.5207227,-83.1649001,1.9669999999999999
FL,172.5,8341,4556940, Duval County (12031), Duval County ,30.3500511,-81.6035062,1.725
FL,182.0,3451,1548755, Escambia County (12033), Escambia County ,30.6389408,-87.3413599,1.82
FL,160.0,1578,523446, Flagler County (12035), Flagler County ,29.4086072,-81.2518833,1.6
FL,188.4,164,58467, Franklin County (12037), Franklin County ,29.7817695,-84.8567932,1.8840000000000001
FL,168.4,493,230283, Gadsden County (12039), Gadsden County ,30.5562947,-84.6479124,1.6840000000000002
FL,190.3,239,86772, Gilchrist County (12041), Gilchrist County ,29.6871128,-82.82097399999999,1.903
FL,127.4,139,65763, Glades County (12043), Glades County ,26.984415,-81.0754657,1.274
FL,170.6,195,79992, Gulf County (12045), Gulf County ,29.8001623,-85.35496499999999,1.706
FL,196.8,176,71374, Hamilton County (12047), Hamilton County ,30.47559579999999,-82.95015579999999,1.9680000000000002
FL,150.0,233,136216, Hardee County (12049), Hardee County ,27.4501733,-81.8224362,1.5
FL,148.9,305,196911, Hendry County (12051), Hendry County ,26.6105319,-81.0754657,1.489
FL,174.1,2941,896268, Hernando County (12053), Hernando County ,28.5578826,-82.4752757,1.7409999999999999
FL,152.4,1681,503167, Highlands County (12055), Highlands County ,27.3400286,-81.34002679999999,1.524
FL,158.0,11412,6751349, Hillsborough County (12057), Hillsborough County ,27.9903597,-82.3017728,1.58
FL,180.1,251,97268, Holmes County (12059), Holmes County ,30.8740806,-85.80766,1.801
FL,158.6,2531,739422, Indian River County (12061), Indian River County ,27.6947732,-80.54384499999999,1.5859999999999999
FL,194.5,659,242933, Jackson County (12063), Jackson County ,30.7150882,-85.1894045,1.945
FL,163.4,180,70445, Jefferson County (12065), Jefferson County ,30.4311978,-83.8897057,1.6340000000000001
FL,186.6,89,43811, Lafayette County (12067), Lafayette County ,30.0299573,-83.2077645,1.8659999999999999
FL,163.3,4703,1628316, Lake County (12069), Lake County ,28.702847,-81.77870209999999,1.633
FL,133.6,8496,3498703, Lee County (12071), Lee County ,26.6630286,-81.9534815,1.3359999999999999
FL,149.4,1985,1429899, Leon County (12073), Leon County ,30.4906177,-84.1857115,1.494
FL,207.5,663,198473, Levy County (12075), Levy County ,29.3178545,-82.82097399999999,2.075
FL,159.2,74,41724, Liberty County (12077), Liberty County ,30.1507777,-84.8567932,1.5919999999999999
FL,191.0,249,92601, Madison County (12079), Madison County ,30.4586334,-83.5070203,1.91
FL,132.5,4340,1816344, Manatee County (12081), Manatee County ,27.4799195,-82.34518899999999,1.325
FL,169.9,5413,1716993, Marion County (12083), Marion County ,29.2787765,-82.12783999999999,1.699
FL,136.8,2308,778139, Martin County (12085), Martin County ,27.0804935,-80.4103957,1.368
FL,131.3,21518,13451637, Miami-Dade County (12086), Miami-Dade County ,25.5516034,-80.6326916,1.3130000000000002
FL,159.7,944,382432, Monroe County (12087), Monroe County ,24.5557001,-81.78259849999999,1.597
FL,183.8,1048,392440, Nassau County (12089), Nassau County ,30.5927334,-81.8224362,1.838
FL,168.5,1959,989113, Okaloosa County (12091), Okaloosa County ,30.57734009999999,-86.6611083,1.685
FL,188.0,532,200812, Okeechobee County (12093), Okeechobee County ,27.3462015,-80.89865019999999,1.88
FL,149.0,8802,6452965, Orange County (12095), Orange County ,28.4844995,-81.2518833,1.49
FL,147.3,2374,1624410, Osceola County (12097), Osceola County ,28.1019838,-81.0754657,1.473
FL,134.0,16621,7122162, Palm Beach County (12099), Palm Beach County ,26.6514503,-80.2767327,1.34
FL,169.5,6702,2487722, Pasco County (12101), Pasco County ,28.3232418,-82.4319405,1.695
FL,153.5,12633,4742582, Pinellas County (12103), Pinellas County ,27.876394,-82.7778579,1.535
FL,158.5,7287,3258056, Polk County (12105), Polk County ,27.8617347,-81.6911559,1.585
FL,209.4,1183,362028, Putnam County (12107), Putnam County ,29.6265157,-81.77870209999999,2.094
FL,159.5,1546,833250, Santa Rosa County (12113), Santa Rosa County ,30.7689907,-86.9824288,1.595
FL,139.6,6599,2024000, Sarasota County (12115), Sarasota County ,27.1995986,-82.34518899999999,1.396
FL,153.1,3938,2243131, Seminole County (12117), Seminole County ,28.7131688,-81.20781640000001,1.531
FL,145.5,2277,1132702, St. Johns County (12109), St. Johns County ,29.9719419,-81.42789839999999,1.455
FL,156.1,3798,1492195, St. Lucie County (12111), St. Lucie County ,27.3225563,-80.54384499999999,1.561
FL,141.9,2292,583151, Sumter County (12119), Sumter County ,28.6747526,-82.08429009999999,1.419
FL,200.1,647,219012, Suwannee County (12121), Suwannee County ,30.24850959999999,-82.99316069999999,2.001
FL,188.1,291,111737, Taylor County (12123), Taylor County ,30.0993767,-83.67739279999999,1.881
FL,451.5,399,76417, Union County (12125), Union County ,30.0745112,-82.34518899999999,4.515
FL,171.5,7509,2591105, Volusia County (12127), Volusia County ,29.0279842,-81.0754657,1.715
FL,202.5,336,157925, Wakulla County (12129), Wakulla County ,30.1301689,-84.3542049,2.025
FL,157.7,701,317102, Walton County (12131), Walton County ,30.56401989999999,-86.17517590000001,1.577
FL,188.6,299,122453, Washington County (12133), Washington County ,30.548737,-85.684578,1.886
GA,172.6,194,92136, Appling County (13001), Appling County ,31.712238,-82.25832969999999,1.726
GA,180.7,77,41295, Atkinson County (13003), Atkinson County ,31.2932161,-82.8640623,1.807
GA,202.2,136,56122, Bacon County (13005), Bacon County ,31.5412085,-82.4319405,2.022
GA,129.4,34,16205, Baker County (13007), Baker County ,31.2816037,-84.4802606,1.294
GA,178.2,457,227788, Baldwin County (13009), Baldwin County ,33.0338083,-83.2934086,1.7819999999999998
GA,150.3,165,91777, Banks County (13011), Banks County ,34.378542,-83.46435509999999,1.5030000000000001
GA,200.2,709,374865, Barrow County (13013), Barrow County ,34.0142667,-83.6986568,2.002
GA,169.8,896,512662, Bartow County (13015), Bartow County ,34.2660473,-84.8150781,1.6980000000000002
GA,202.5,214,86410, Ben Hill County (13017), Ben Hill County ,31.7664035,-83.2077645,2.025
GA,159.1,194,94934, Berrien County (13019), Berrien County ,31.3118535,-83.2077645,1.591
GA,177.7,1575,769389, Bibb County (13021), Bibb County ,32.7865735,-83.7199136,1.777
GA,178.1,142,63779, Bleckley County (13023), Bleckley County ,32.4087854,-83.3789389,1.781
GA,203.5,228,92149, Brantley County (13025), Brantley County ,31.1510963,-81.9971108,2.035
GA,185.8,192,78253, Brooks County (13027), Brooks County ,30.8730159,-83.54965659999999,1.858
GA,203.3,307,174349, Bryan County (13029), Bryan County ,32.0236584,-81.47183869999999,2.033
GA,180.5,565,368448, Bulloch County (13031), Bulloch County ,32.3595678,-81.77870209999999,1.805
GA,178.7,226,113141, Burke County (13033), Burke County ,33.088805,-81.9534815,1.787
GA,217.0,296,117753, Butts County (13035), Butts County ,33.2691443,-83.9532571,2.17
GA,144.6,57,32383, Calhoun County (13037), Calhoun County ,31.5621777,-84.6479124,1.446
GA,165.4,396,261296, Camden County (13039), Camden County ,30.898276,-81.6035062,1.6540000000000001
GA,179.4,126,54251, Candler County (13043), Candler County ,32.4241804,-82.08429009999999,1.794
GA,197.9,1133,574266, Carroll County (13045), Carroll County ,33.5642239,-85.0649071,1.979
GA,166.9,684,329301, Catoosa County (13047), Catoosa County ,34.8981727,-85.14793639999999,1.669
GA,176.6,128,65055, Charlton County (13049), Charlton County ,30.7917361,-82.08429009999999,1.766
GA,158.4,2439,1423680, Chatham County (13051), Chatham County ,31.9994194,-81.1196075,1.584
GA,163.6,35,55403, Chattahoochee County (13053), Chattahoochee County ,32.2952274,-84.8150781,1.636
GA,198.9,317,124334, Chattooga County (13055), Chattooga County ,34.4632661,-85.31362179999999,1.989
GA,147.0,1653,1179737, Cherokee County (13057), Cherokee County ,34.2514526,-84.4802606,1.47
GA,149.7,732,616584, Clarke County (13059), Clarke County ,33.9519347,-83.357567,1.4969999999999999
GA,142.8,40,15130, Clay County (13061), Clay County ,31.6447931,-85.0025539,1.4280000000000002
GA,168.1,1653,1367749, Clayton County (13063), Clayton County ,33.5571944,-84.375233,1.681
GA,226.7,87,33828, Clinch County (13065), Clinch County ,30.9716985,-82.82097399999999,2.267
GA,148.8,4840,3684584, Cobb County (13067), Cobb County ,33.8999297,-84.56414699999999,1.4880000000000002
GA,178.2,392,214805, Coffee County (13069), Coffee County ,31.5182285,-82.82097399999999,1.7819999999999998
GA,182.9,461,228587, Colquitt County (13071), Colquitt County ,31.2072856,-83.8473015,1.829
GA,139.8,969,718360, Columbia County (13073), Columbia County ,33.5098514,-82.25832969999999,1.3980000000000001
GA,201.3,205,85807, Cook County (13075), Cook County ,31.1428037,-83.46435509999999,2.013
GA,163.7,1126,689652, Coweta County (13077), Coweta County ,33.3716708,-84.7315563,1.6369999999999998
GA,155.3,122,61916, Crawford County (13079), Crawford County ,32.7090798,-83.9744262,1.5530000000000002
GA,166.1,252,114922, Crisp County (13081), Crisp County ,31.8875724,-83.804868,1.661
GA,211.6,223,81356, Dade County (13083), Dade County ,34.9109017,-85.47880649999999,2.116
GA,168.7,258,116905, Dawson County (13085), Dawson County ,34.412912,-84.14351359999999,1.6869999999999998
GA,144.7,4869,3677115, DeKalb County (13089), DeKalb County ,33.7956441,-84.2278796,1.4469999999999998
GA,195.5,327,134988, Decatur County (13087), Decatur County ,30.8720058,-84.5222189,1.955
GA,145.3,196,105317, Dodge County (13091), Dodge County ,32.1287268,-83.2077645,1.453
GA,129.5,124,70189, Dooly County (13093), Dooly County ,32.1593447,-83.804868,1.295
GA,181.1,929,457394, Dougherty County (13095), Dougherty County ,31.5439375,-84.2278796,1.811
GA,175.7,1081,699925, Douglas County (13097), Douglas County ,33.7290225,-84.7315563,1.757
GA,205.0,147,52032, Early County (13099), Early County ,31.3901106,-84.8984775,2.05
GA,102.7,21,19966, Echols County (13101), Echols County ,30.7503289,-82.95015579999999,1.0270000000000001
GA,180.1,482,285683, Effingham County (13103), Effingham County ,32.378148,-81.38393260000001,1.801
GA,180.7,256,96426, Elbert County (13105), Elbert County ,34.0795372,-82.8640623,1.807
GA,221.8,296,112517, Emanuel County (13107), Emanuel County ,32.5726629,-82.3017728,2.218
GA,177.4,113,53709, Evans County (13109), Evans County ,32.1427011,-81.909826,1.774
GA,169.7,377,122484, Fannin County (13111), Fannin County ,34.8580405,-84.2278796,1.6969999999999998
GA,131.5,892,551448, Fayette County (13113), Fayette County ,33.4502206,-84.4802606,1.315
GA,177.2,1043,482077, Floyd County (13115), Floyd County ,34.2828967,-85.2308414,1.7719999999999998
GA,137.3,1257,1056638, Forsyth County (13117), Forsyth County ,34.2358502,-84.14351359999999,1.3730000000000002
GA,190.4,295,111588, Franklin County (13119), Franklin County ,34.3645724,-83.2077645,1.9040000000000001
GA,153.6,6919,5040957, Fulton County (13121), Fulton County ,33.8033965,-84.3962535,1.536
GA,151.3,344,147488, Gilmer County (13123), Gilmer County ,34.6935359,-84.4802606,1.5130000000000001
GA,232.1,43,15106, Glascock County (13125), Glascock County ,33.2422994,-82.6267345,2.3209999999999997
GA,161.1,909,416144, Glynn County (13127), Glynn County ,31.2624169,-81.6035062,1.611
GA,188.5,579,281995, Gordon County (13129), Gordon County ,34.4891699,-84.8567932,1.885
GA,171.8,270,124981, Grady County (13131), Grady County ,30.9050079,-84.2278796,1.7180000000000002
GA,169.2,241,83432, Greene County (13133), Greene County ,33.5186591,-83.1649001,1.692
GA,142.0,4759,4437466, Gwinnett County (13135), Gwinnett County ,33.9190653,-84.01674229999999,1.42
GA,170.0,474,219234, Habersham County (13137), Habersham County ,34.6478893,-83.54965659999999,1.7
GA,148.4,1507,964145, Hall County (13139), Hall County ,34.30778,-83.804868,1.484
GA,165.6,110,43284, Hancock County (13141), Hancock County ,33.2882621,-83.03613759999999,1.656
GA,185.2,321,143582, Haralson County (13143), Haralson County ,33.8021715,-85.1900684,1.8519999999999999
GA,138.5,291,166015, Harris County (13145), Harris County ,32.7032697,-84.8567932,1.385
GA,144.9,281,127521, Hart County (13147), Hart County ,34.3500039,-82.95015579999999,1.449
GA,180.5,136,58067, Heard County (13149), Heard County ,33.2990406,-85.14793639999999,1.805
GA,163.2,1538,1086400, Henry County (13151), Henry County ,33.4347963,-84.14351359999999,1.632
GA,164.6,1194,750580, Houston County (13153), Houston County ,32.4219655,-83.63484299999999,1.646
GA,179.4,109,46308, Irwin County (13155), Irwin County ,31.5893221,-83.2934086,1.794
GA,196.6,674,319626, Jackson County (13157), Jackson County ,34.1174511,-83.54965659999999,1.966
GA,208.1,179,68484, Jasper County (13159), Jasper County ,33.3246924,-83.7199136,2.081
GA,180.5,152,74974, Jeff Davis County (13161), Jeff Davis County ,31.8234851,-82.605118,1.805
GA,206.8,215,79681, Jefferson County (13163), Jefferson County ,33.0740753,-82.4319405,2.068
GA,194.6,106,44654, Jenkins County (13165), Jenkins County ,32.7781246,-81.9971108,1.946
GA,134.2,88,48840, Johnson County (13167), Johnson County ,32.7308194,-82.6915429,1.3419999999999999
GA,150.2,262,142698, Jones County (13169), Jones County ,33.0002582,-83.5070203,1.5019999999999998
GA,182.4,202,91487, Lamar County (13171), Lamar County ,33.0765883,-84.14351359999999,1.824
GA,177.1,90,51899, Lanier County (13173), Lanier County ,31.02912689999999,-83.03613759999999,1.771
GA,192.3,575,237527, Laurens County (13175), Laurens County ,32.433014,-82.99316069999999,1.923
GA,181.8,234,146021, Lee County (13177), Lee County ,31.8128435,-84.14351359999999,1.818
GA,154.9,321,311393, Liberty County (13179), Liberty County ,31.842969,-81.47183869999999,1.5490000000000002
GA,166.5,100,38813, Lincoln County (13181), Lincoln County ,33.7875101,-82.4319405,1.665
GA,116.6,76,88249, Long County (13183), Long County ,31.7755541,-81.8224362,1.166
GA,146.4,761,569473, Lowndes County (13185), Lowndes County ,30.8600022,-83.2934086,1.464
GA,157.5,294,157692, Lumpkin County (13187), Lumpkin County ,34.5813972,-83.9744262,1.575
GA,182.3,157,68231, Macon County (13193), Macon County ,32.3523607,-84.05902900000001,1.8230000000000002
GA,177.8,313,143044, Madison County (13195), Madison County ,34.0990245,-83.2077645,1.778
GA,137.2,83,42648, Marion County (13197), Marion County ,32.328102,-84.5222189,1.3719999999999999
GA,198.9,261,107458, McDuffie County (13189), McDuffie County ,33.5258626,-82.5185837,1.989
GA,136.2,158,70285, McIntosh County (13191), McIntosh County ,31.4748147,-81.38393260000001,1.3619999999999999
GA,164.6,244,105720, Meriwether County (13199), Meriwether County ,33.0561282,-84.68974949999999,1.646
GA,168.8,74,29391, Miller County (13201), Miller County ,31.2008218,-84.7315563,1.6880000000000002
GA,180.8,247,112957, Mitchell County (13205), Mitchell County ,31.2230067,-84.1857115,1.808
GA,151.4,269,134158, Monroe County (13207), Monroe County ,32.9746846,-83.8897057,1.514
GA,156.6,80,44944, Montgomery County (13209), Montgomery County ,32.1802095,-82.5185837,1.5659999999999998
GA,171.9,211,90001, Morgan County (13211), Morgan County ,33.5794186,-83.46435509999999,1.719
GA,181.5,389,197053, Murray County (13213), Murray County ,34.7928029,-84.7315563,1.815
GA,182.6,1805,992388, Muscogee County (13215), Muscogee County ,32.4794133,-84.8984775,1.8259999999999998
GA,190.1,967,525010, Newton County (13217), Newton County ,33.5544296,-83.8473015,1.901
GA,117.3,232,179887, Oconee County (13219), Oconee County ,33.8231988,-83.4430118,1.173
GA,161.9,157,73281, Oglethorpe County (13221), Oglethorpe County ,33.9119731,-83.03613759999999,1.619
GA,162.1,1015,761907, Paulding County (13223), Paulding County ,33.9142037,-84.8984775,1.621
GA,204.4,316,134575, Peach County (13225), Peach County ,32.5892926,-83.8260884,2.044
GA,159.7,355,151593, Pickens County (13227), Pickens County ,34.4497166,-84.4592701,1.597
GA,190.4,221,95448, Pierce County (13229), Pierce County ,31.343806,-82.1713632,1.9040000000000001
GA,194.9,202,89549, Pike County (13231), Pike County ,33.0881873,-84.3962535,1.949
GA,199.7,484,206593, Polk County (13233), Polk County ,34.0132398,-85.14793639999999,1.9969999999999999
GA,139.3,118,56973, Pulaski County (13235), Pulaski County ,32.232644,-83.46435509999999,1.393
GA,176.9,287,106993, Putnam County (13237), Putnam County ,33.3069978,-83.3789389,1.7690000000000001
GA,188.5,39,11613, Quitman County (13239), Quitman County ,31.8485969,-84.981754,1.885
GA,162.0,234,81609, Rabun County (13241), Rabun County ,34.9027286,-83.3789389,1.62
GA,149.1,85,35801, Randolph County (13243), Randolph County ,31.7913398,-84.68974949999999,1.4909999999999999
GA,193.9,2033,1006954, Richmond County (13245), Richmond County ,33.3205339,-82.08429009999999,1.939
GA,153.0,705,440961, Rockdale County (13247), Rockdale County ,33.6752492,-84.0378894,1.53
GA,164.3,50,25913, Schley County (13249), Schley County ,32.2736136,-84.3121264,1.643
GA,201.5,187,70157, Screven County (13251), Screven County ,32.7074673,-81.6035062,2.015
GA,195.8,132,42715, Seminole County (13253), Seminole County ,30.9331429,-84.8984775,1.9580000000000002
GA,194.4,771,321002, Spalding County (13255), Spalding County ,33.2636732,-84.3121264,1.944
GA,202.7,351,127913, Stephens County (13257), Stephens County ,34.5458998,-83.2934086,2.0269999999999997
GA,186.6,67,29568, Stewart County (13259), Stewart County ,32.1141344,-84.8150781,1.8659999999999999
GA,197.7,356,153366, Sumter County (13261), Sumter County ,31.9981596,-84.2278796,1.9769999999999999
GA,157.0,82,32155, Talbot County (13263), Talbot County ,32.6891322,-84.5222189,1.57
GA,193.4,28,8262, Taliaferro County (13265), Taliaferro County ,33.56978780000001,-82.8855961,1.9340000000000002
GA,184.5,252,127023, Tattnall County (13267), Tattnall County ,32.0634576,-82.08429009999999,1.845
GA,177.6,104,41307, Taylor County (13269), Taylor County ,32.5407455,-84.2278796,1.776
GA,146.3,156,81334, Telfair County (13271), Telfair County ,31.8907647,-82.99316069999999,1.463
GA,207.4,123,44850, Terrell County (13273), Terrell County ,31.7370079,-84.4802606,2.074
GA,191.5,554,223973, Thomas County (13275), Thomas County ,30.8417409,-83.8473015,1.915
GA,189.3,422,202155, Tift County (13277), Tift County ,31.4205597,-83.54965659999999,1.893
GA,204.4,329,135552, Toombs County (13279), Toombs County ,32.0795072,-82.34518899999999,2.044
GA,177.6,212,56023, Towns County (13281), Towns County ,34.9208214,-83.7199136,1.776
GA,196.2,83,33762, Treutlen County (13283), Treutlen County ,32.3870233,-82.5834947,1.962
GA,182.1,698,347640, Troup County (13285), Troup County ,33.0698575,-85.02334599999999,1.821
GA,238.4,128,40101, Turner County (13287), Turner County ,31.6976531,-83.63484299999999,2.384
GA,163.7,103,41746, Twiggs County (13289), Twiggs County ,32.68356,-83.46435509999999,1.6369999999999998
GA,157.9,361,111291, Union County (13291), Union County ,34.8457601,-83.9744262,1.579
GA,197.2,351,131298, Upson County (13293), Upson County ,32.9047684,-84.3121264,1.972
GA,184.6,845,343320, Walker County (13295), Walker County ,34.6858231,-85.35496499999999,1.8459999999999999
GA,174.7,881,443196, Walton County (13297), Walton County ,33.7708613,-83.7199136,1.7469999999999999
GA,188.5,428,178067, Ware County (13299), Ware County ,31.134411,-82.4752757,1.885
GA,219.0,92,27002, Warren County (13301), Warren County ,33.4470392,-82.6915429,2.19
GA,191.3,248,102495, Washington County (13303), Washington County ,32.962702,-82.82097399999999,1.913
GA,202.8,342,149021, Wayne County (13305), Wayne County ,31.5092107,-81.909826,2.028
GA,105.7,22,13124, Webster County (13307), Webster County ,32.0129889,-84.56414699999999,1.057
GA,178.3,77,39740, Wheeler County (13309), Wheeler County ,32.0999794,-82.6915429,1.7830000000000001
GA,152.6,327,142500, White County (13311), White County ,34.6567728,-83.7199136,1.526
GA,163.0,862,517942, Whitfield County (13313), Whitfield County ,34.8033566,-84.981754,1.63
GA,187.4,108,44439, Wilcox County (13315), Wilcox County ,31.9611759,-83.46435509999999,1.874
GA,184.4,145,49459, Wilkes County (13317), Wilkes County ,33.808264,-82.7778579,1.844
GA,177.3,111,45715, Wilkinson County (13319), Wilkinson County ,32.8024682,-83.1649001,1.7730000000000001
GA,176.6,242,104047, Worth County (13321), Worth County ,31.5282489,-83.8897057,1.766
HI,146.0,1991,978772, Hawaii County (15001) - 2000+, Hawaii County ,19.5429151,-155.6658568,1.46
HI,129.1,8139,4944331, Honolulu County (15003) - 2000+, Honolulu County ,21.3069857,-157.8584319,1.291
HI,127.8,626,354413, Kauai County (15007) - 2000+, Kauai County ,21.9661076,-159.5737912,1.278
HI,135.9,1388,820149, Maui County (15009) - 2000+, Maui County ,20.7983626,-156.3319253,1.359
IA,197.3,118,35946, Adair County (19001), Adair County ,41.2741733,-94.479976,1.973
IA,172.3,56,18877, Adams County (19003), Adams County ,41.0652066,-94.6863782,1.723
IA,127.0,149,69634, Allamakee County (19005), Allamakee County ,43.2430754,-91.44346900000001,1.27
IA,166.8,172,62764, Appanoose County (19007), Appanoose County ,40.6806102,-92.8577105,1.6680000000000001
IA,134.4,70,28542, Audubon County (19009), Audubon County ,41.7326826,-94.976654,1.344
IA,154.5,276,128185, Benton County (19011), Benton County ,42.1387249,-92.0665197,1.545
IA,161.9,1285,665573, Black Hawk County (19013), Black Hawk County ,42.447804,-92.38136209999999,1.619
IA,161.8,290,131942, Boone County (19015), Boone County ,42.0881747,-93.9878427,1.618
IA,137.9,247,123539, Bremer County (19017), Bremer County ,42.76108199999999,-92.38136209999999,1.379
IA,164.4,224,105462, Buchanan County (19019), Buchanan County ,42.4566006,-91.9099238,1.6440000000000001
IA,161.1,196,102090, Buena Vista County (19021), Buena Vista County ,42.6705452,-95.1432068,1.611
IA,160.7,194,74116, Butler County (19023), Butler County ,42.7502186,-92.8577105,1.607
IA,181.7,152,49101, Calhoun County (19025), Calhoun County ,42.3785903,-94.645035,1.817
IA,183.0,291,102109, Carroll County (19027), Carroll County ,42.0566912,-94.81059549999999,1.83
IA,173.6,191,66593, Cass County (19029), Cass County ,41.2538068,-94.976654,1.736
IA,166.3,219,91874, Cedar County (19031), Cedar County ,41.8346154,-91.13530200000001,1.663
IA,143.8,490,215801, Cerro Gordo County (19033), Cerro Gordo County ,43.1543186,-93.20296750000001,1.4380000000000002
IA,171.0,170,57895, Cherokee County (19035), Cherokee County ,42.8027756,-95.6457951,1.71
IA,156.4,146,60803, Chickasaw County (19037), Chickasaw County ,43.0724667,-92.38136209999999,1.564
IA,194.0,124,46232, Clarke County (19039), Clarke County ,41.01778360000001,-93.7841503,1.94
IA,158.3,206,81871, Clay County (19041), Clay County ,43.1368038,-95.1432068,1.5830000000000002
IA,152.3,222,88600, Clayton County (19043), Clayton County ,42.7785285,-91.28910359999999,1.5230000000000001
IA,165.0,565,237853, Clinton County (19045), Clinton County ,41.878563,-90.563609,1.65
IA,146.0,170,85868, Crawford County (19047), Crawford County ,42.034686,-95.3102505,1.46
IA,137.8,511,404784, Dallas County (19049), Dallas County ,41.6120022,-93.9878427,1.3780000000000001
IA,140.3,82,44173, Davis County (19051), Davis County ,40.6913838,-92.38136209999999,1.403
IA,216.7,118,40544, Decatur County (19053), Decatur County ,40.8146492,-93.8248241,2.167
IA,160.1,206,86690, Delaware County (19055), Delaware County ,42.4634009,-91.44346900000001,1.601
IA,180.6,533,199250, Des Moines County (19057), Des Moines County ,40.9123374,-91.17369939999999,1.806
IA,167.6,256,85006, Dickinson County (19059), Dickinson County ,43.4049388,-95.18492189999999,1.676
IA,154.0,985,483100, Dubuque County (19061), Dubuque County ,42.4694679,-90.8294002,1.54
IA,205.2,152,48383, Emmet County (19063), Emmet County ,43.34943,-94.6863782,2.052
IA,163.7,266,100508, Fayette County (19065), Fayette County ,42.9258199,-91.9099238,1.6369999999999998
IA,166.6,216,79555, Floyd County (19067), Floyd County ,43.0615947,-92.8577105,1.666
IA,140.2,117,51611, Franklin County (19069), Franklin County ,42.7372361,-93.33889169999999,1.402
IA,179.7,105,34915, Fremont County (19071), Fremont County ,40.7400403,-95.6457951,1.797
IA,161.8,123,45192, Greene County (19073), Greene County ,42.0700527,-94.479976,1.618
IA,155.5,154,61746, Grundy County (19075), Grundy County ,42.4369506,-92.8577105,1.555
IA,177.3,157,53321, Guthrie County (19077), Guthrie County ,41.7530909,-94.479976,1.7730000000000001
IA,148.0,175,75942, Hamilton County (19079), Hamilton County ,42.4141275,-93.66232389999999,1.48
IA,134.3,118,54860, Hancock County (19081), Hancock County ,43.0387322,-93.66232389999999,1.3430000000000002
IA,177.7,257,86155, Hardin County (19083), Hardin County ,42.4285425,-93.17796589999999,1.777
IA,164.3,168,70940, Harrison County (19085), Harrison County ,41.6933855,-95.81428849999999,1.643
IA,168.0,230,99587, Henry County (19087), Henry County ,41.0283603,-91.5983959,1.68
IA,159.6,120,46574, Howard County (19089), Howard County ,43.3819496,-92.38136209999999,1.5959999999999999
IA,162.6,121,47958, Humboldt County (19091), Humboldt County ,42.7482597,-94.19234000000002,1.626
IA,143.8,89,34814, Ida County (19093), Ida County ,42.3418685,-95.4777811,1.4380000000000002
IA,156.3,185,81174, Iowa County (19095), Iowa County ,41.6624604,-92.0665197,1.5630000000000002
IA,164.9,232,97058, Jackson County (19097), Jackson County ,42.1560699,-90.52578229999999,1.649
IA,161.2,421,184039, Jasper County (19099), Jasper County ,41.6414924,-93.0175712,1.6119999999999999
IA,134.7,178,89634, Jefferson County (19101), Jefferson County ,41.0236358,-91.9099238,1.347
IA,140.0,847,723907, Johnson County (19103), Johnson County ,41.6698982,-91.5983959,1.4
IA,161.8,246,102611, Jones County (19105), Jones County ,42.1516737,-91.13530200000001,1.618
IA,165.6,136,51113, Keokuk County (19107), Keokuk County ,41.3397063,-92.2236667,1.656
IA,153.2,197,75799, Kossuth County (19109), Kossuth County ,43.25133839999999,-94.2333355,1.5319999999999998
IA,181.3,468,173887, Lee County (19111), Lee County ,40.70686630000001,-91.44346900000001,1.8130000000000002
IA,157.9,2012,1101174, Linn County (19113), Linn County ,42.0659844,-91.67606909999999,1.579
IA,175.5,133,56297, Louisa County (19115), Louisa County ,41.19330009999999,-91.28910359999999,1.755
IA,161.0,114,43037, Lucas County (19117), Lucas County ,40.9912021,-93.33889169999999,1.61
IA,155.7,126,58728, Lyon County (19119), Lyon County ,43.3954333,-96.15269850000001,1.557
IA,152.1,155,78682, Madison County (19121), Madison County ,41.2922367,-93.9878427,1.521
IA,182.2,277,111464, Mahaska County (19123), Mahaska County ,41.32958800000001,-92.6983868,1.8219999999999998
IA,187.2,407,165641, Marion County (19125), Marion County ,41.3173818,-93.17796589999999,1.8719999999999999
IA,179.0,501,202383, Marshall County (19127), Marshall County ,42.0407088,-92.9375739,1.79
IA,160.1,157,74631, Mills County (19129), Mills County ,41.0624496,-95.6457951,1.601
IA,143.9,133,53252, Mitchell County (19131), Mitchell County ,43.37107020000001,-92.8577105,1.439
IA,181.5,147,44335, Monona County (19133), Monona County ,42.001594,-95.9832577,1.815
IA,228.7,134,39505, Monroe County (19135), Monroe County ,41.0040981,-92.8577105,2.287
IA,176.5,148,51176, Montgomery County (19137), Montgomery County ,41.0438839,-95.18492189999999,1.765
IA,178.8,458,214779, Muscatine County (19139), Muscatine County ,41.5156913,-91.13530200000001,1.788
IA,151.4,178,69760, OBrien County (19141), OBrien County ,43.1131245,-95.6457951,1.514
IA,142.3,71,30769, Osceola County (19143), Osceola County ,43.3851953,-95.6037465,1.423
IA,162.0,202,77082, Page County (19145), Page County ,40.7635099,-95.1432068,1.62
IA,184.0,142,45511, Palo Alto County (19147), Palo Alto County ,43.1580878,-94.645035,1.84
IA,158.6,283,125030, Plymouth County (19149), Plymouth County ,42.776665,-96.15269850000001,1.5859999999999999
IA,171.1,107,34862, Pocahontas County (19151), Pocahontas County ,42.6918039,-94.645035,1.7109999999999999
IA,169.4,3901,2336855, Polk County (19153), Polk County ,41.6278423,-93.5003454,1.694
IA,174.3,1037,466848, Pottawattamie County (19155), Pottawattamie County ,41.3911501,-95.4777811,1.743
IA,173.4,244,92931, Poweshiek County (19157), Poweshiek County ,41.6530119,-92.539603,1.734
IA,198.7,90,24922, Ringgold County (19159), Ringgold County ,40.7973811,-94.315422,1.9869999999999999
IA,175.4,150,49649, Sac County (19161), Sac County ,42.3573517,-95.1432068,1.754
IA,171.1,1738,858365, Scott County (19163), Scott County ,41.6393199,-90.6393702,1.7109999999999999
IA,160.1,163,58792, Shelby County (19165), Shelby County ,41.7177667,-95.3102505,1.601
IA,133.7,287,173725, Sioux County (19167), Sioux County ,43.08699360000001,-96.15269850000001,1.337
IA,149.2,633,480378, Story County (19169), Story County ,42.1040438,-93.5003454,1.492
IA,186.3,238,86205, Tama County (19171), Tama County ,42.1292592,-92.539603,1.8630000000000002
IA,176.8,84,31045, Taylor County (19173), Taylor County ,40.7846069,-94.645035,1.768
IA,174.4,159,62521, Union County (19175), Union County ,41.0006855,-94.27436279999999,1.744
IA,200.1,113,36528, Van Buren County (19177), Van Buren County ,40.7001158,-91.9099238,2.001
IA,185.2,447,176881, Wapello County (19179), Wapello County ,41.0148894,-92.38136209999999,1.8519999999999999
IA,161.4,457,243103, Warren County (19181), Warren County ,41.30805489999999,-93.5003454,1.614
IA,173.5,281,110518, Washington County (19183), Washington County ,41.3477966,-91.7538817,1.735
IA,154.4,81,32049, Wayne County (19185), Wayne County ,40.6677356,-93.33889169999999,1.544
IA,166.2,424,184840, Webster County (19187), Webster County ,42.3974963,-94.15137639999999,1.662
IA,153.6,129,52765, Winnebago County (19189), Winnebago County ,43.3481922,-93.66232389999999,1.536
IA,138.3,211,102813, Winneshiek County (19191), Winneshiek County ,43.2362611,-91.9099238,1.383
IA,178.5,1026,511740, Woodbury County (19193), Woodbury County ,42.3166158,-95.9832577,1.785
IA,148.8,83,37479, Worth County (19195), Worth County ,43.3580686,-93.33889169999999,1.4880000000000002
IA,152.5,154,64314, Wright County (19197), Wright County ,42.7273744,-93.66232389999999,1.525
ID,152.3,3339,2176376, Ada County (16001), Ada County ,43.478767,-116.2420304,1.5230000000000001
ID,128.5,47,19705, Adams County (16003), Adams County ,44.9882561,-116.4916092,1.285
ID,144.6,612,421634, Bannock County (16005), Bannock County ,42.5836362,-112.1430215,1.446
ID,146.2,63,29710, Bear Lake County (16007), Bear Lake County ,42.228222,-111.2845025,1.462
ID,206.9,140,45230, Benewah County (16009), Benewah County ,47.2437836,-116.6499425,2.069
ID,146.3,345,226948, Bingham County (16011), Bingham County ,43.2112303,-112.3624146,1.463
ID,109.2,133,108701, Blaine County (16013), Blaine County ,43.4743428,-113.9664446,1.092
ID,119.4,68,34901, Boise County (16015), Boise County ,43.9604787,-115.8563106,1.194
ID,180.7,586,209358, Bonner County (16017), Bonner County ,48.2751783,-116.5931483,1.807
ID,134.5,725,552515, Bonneville County (16019), Bonneville County ,43.4508683,-111.5455289,1.345
ID,152.6,125,56649, Boundary County (16021), Boundary County ,48.7987617,-116.5627065,1.526
ID,139.8,29,13066, Butte County (16023), Butte County ,43.6448198,-113.1841378,1.3980000000000001
ID,258.5,17,5349, Camas County (16025), Camas County ,43.5093688,-114.8243665,2.585
ID,156.2,1574,1036291, Canyon County (16027), Canyon County ,43.67795810000001,-116.6865435,1.5619999999999998
ID,140.9,61,34356, Caribou County (16029), Caribou County ,42.75386839999999,-111.6660725,1.409
ID,139.2,172,117562, Cassia County (16031), Cassia County ,42.358036,-113.5728501,1.392
ID,172.2,135,43018, Clearwater County (16035), Clearwater County ,46.6775737,-115.5620377,1.722
ID,174.1,63,20650, Custer County (16037), Custer County ,44.3331898,-114.2614334,1.7409999999999999
ID,187.9,233,131171, Elmore County (16039), Elmore County ,43.1154284,-115.5264458,1.879
ID,133.6,93,65472, Franklin County (16041), Franklin County ,42.2100342,-111.7614661,1.3359999999999999
ID,140.8,109,64538, Fremont County (16043), Fremont County ,44.2242743,-111.4790031,1.4080000000000001
ID,187.8,234,84196, Gem County (16045), Gem County ,44.0324936,-116.3589245,1.8780000000000001
ID,168.3,159,75827, Gooding County (16047), Gooding County ,42.9180557,-114.7494346,1.683
ID,154.4,225,81418, Idaho County (16049), Idaho County ,45.9019541,-115.7237433,1.544
ID,147.0,172,137205, Jefferson County (16051), Jefferson County ,43.7640903,-112.2493671,1.47
ID,140.6,161,115932, Jerome County (16053), Jerome County ,42.712818,-114.3287857,1.406
ID,171.9,1646,750417, Kootenai County (16055), Kootenai County ,47.7568407,-116.6222056,1.719
ID,143.7,259,194277, Latah County (16057), Latah County ,46.7360364,-116.6764195,1.4369999999999998
ID,155.3,115,38744, Lemhi County (16059), Lemhi County ,45.0364592,-113.9230554,1.5530000000000002
ID,163.1,54,19167, Lewis County (16061), Lewis County ,46.2664791,-116.4054092,1.631
ID,138.4,35,26573, Lincoln County (16063), Lincoln County ,43.0496418,-114.1694407,1.3840000000000001
ID,98.9,98,191750, Madison County (16065), Madison County ,43.7508332,-111.5583742,0.9890000000000001
ID,138.9,171,102656, Minidoka County (16067), Minidoka County ,42.8409971,-113.5808126,1.389
ID,186.9,551,200158, Nez Perce County (16069), Nez Perce County ,46.41818139999999,-116.622876,1.869
ID,115.9,35,21395, Oneida County (16071), Oneida County ,42.2059769,-112.5245093,1.159
ID,144.2,103,56983, Owyhee County (16073), Owyhee County ,42.6827359,-116.0622892,1.442
ID,165.2,238,114199, Payette County (16075), Payette County ,44.02051850000001,-116.7205398,1.652
ID,128.6,56,38595, Power County (16077), Power County ,42.7528492,-112.7684521,1.286
ID,209.9,212,62525, Shoshone County (16079), Shoshone County ,47.1746948,-115.9104676,2.099
ID,108.0,48,54166, Teton County (16081), Teton County ,43.7845793,-111.1917625,1.08
ID,159.5,754,412149, Twin Falls County (16083), Twin Falls County ,42.335252,-114.6758916,1.595
ID,132.2,105,50540, Valley County (16085), Valley County ,44.9204669,-115.7926381,1.3219999999999998
ID,173.0,148,49881, Washington County (16087), Washington County ,44.3658715,-116.7548607,1.73
IL,156.3,781,333446, Adams County (17001), Adams County ,40.0577692,-91.13530200000001,1.5630000000000002
IL,228.6,121,33838, Alexander County (17003), Alexander County ,37.1670164,-89.3606298,2.286
IL,157.3,182,84258, Bond County (17005), Bond County ,38.902985,-89.4742177,1.5730000000000002
IL,158.8,475,268219, Boone County (17007), Boone County ,42.34849759999999,-88.8263006,1.588
IL,175.9,64,33682, Brown County (17009), Brown County ,39.9379573,-90.7152749,1.7590000000000001
IL,165.5,433,168023, Bureau County (17011), Bureau County ,41.35991560000001,-89.4742177,1.655
IL,133.9,56,24498, Calhoun County (17013), Calhoun County ,39.1733216,-90.658333,1.339
IL,161.5,215,73466, Carroll County (17015), Carroll County ,42.0385843,-89.9626799,1.615
IL,186.6,158,64368, Cass County (17017), Cass County ,39.9398601,-90.26200419999999,1.8659999999999999
IL,142.1,1395,1043691, Champaign County (17019), Champaign County ,40.2138865,-88.24611829999999,1.421
IL,190.6,477,167639, Christian County (17021), Christian County ,39.5672183,-89.3226954,1.906
IL,183.5,207,79679, Clark County (17023), Clark County ,39.3824189,-87.77633329999999,1.835
IL,181.7,181,66991, Clay County (17025), Clay County ,38.7279431,-88.55653099999999,1.817
IL,150.1,358,188230, Clinton County (17027), Clinton County ,38.56844419999999,-89.62516459999999,1.501
IL,171.7,546,260849, Coles County (17029), Coles County ,39.5560011,-88.24611829999999,1.7169999999999999
IL,164.2,47011,26192985, Cook County (17031), Cook County ,41.7376587,-87.697554,1.642
IL,182.8,249,96069, Crawford County (17033), Crawford County ,39.0499568,-87.77633329999999,1.828
IL,183.1,140,54421, Cumberland County (17035), Cumberland County ,39.2653533,-88.2071598,1.831
IL,181.9,208,80812, De Witt County (17039), De Witt County ,40.1810363,-88.90306,1.819
IL,169.6,826,521066, DeKalb County (17037), DeKalb County ,41.8329981,-88.7108964,1.696
IL,165.0,219,98952, Douglas County (17041), Douglas County ,39.7617631,-88.2071598,1.65
IL,141.0,7398,4662646, DuPage County (17043), DuPage County ,41.8243831,-88.0900762,1.41
IL,176.5,248,88275, Edgar County (17045), Edgar County ,39.71312229999999,-87.77633329999999,1.765
IL,158.0,79,32830, Edwards County (17047), Edwards County ,38.4267827,-88.050979,1.58
IL,157.6,352,170876, Effingham County (17049), Effingham County ,39.06217729999999,-88.55653099999999,1.5759999999999998
IL,170.8,264,109399, Fayette County (17051), Fayette County ,39.0669568,-89.0179332,1.7080000000000002
IL,210.8,208,67400, Ford County (17053), Ford County ,40.4988592,-88.2071598,2.108
IL,211.1,607,196485, Franklin County (17055), Franklin County ,38.0157197,-88.90306,2.1109999999999998
IL,171.6,460,178569, Fulton County (17057), Fulton County ,40.5531823,-90.2244662,1.716
IL,197.7,81,26115, Gallatin County (17059), Gallatin County ,37.7107751,-88.24611829999999,1.9769999999999999
IL,193.3,185,66680, Greene County (17061), Greene County ,39.4029862,-90.37483540000001,1.933
IL,180.1,475,251759, Grundy County (17063), Grundy County ,41.3500531,-88.4016041,1.801
IL,186.9,121,41290, Hamilton County (17065), Hamilton County ,38.0543187,-88.55653099999999,1.869
IL,158.0,238,91259, Hancock County (17067), Hancock County ,40.38493649999999,-91.13530200000001,1.58
IL,252.5,87,20312, Hardin County (17069), Hardin County ,37.4995097,-88.362785,2.525
IL,181.1,110,34675, Henderson County (17071), Henderson County ,40.83355479999999,-90.9438468,1.811
IL,170.6,616,248152, Henry County (17073), Henry County ,41.361088,-90.0746767,1.706
IL,199.5,433,142180, Iroquois County (17075), Iroquois County ,40.7740275,-87.697554,1.995
IL,156.3,481,295095, Jackson County (17077), Jackson County ,37.7218304,-89.3226954,1.5630000000000002
IL,153.9,109,47983, Jasper County (17079), Jasper County ,39.0554965,-88.0900762,1.5390000000000001
IL,165.2,435,191672, Jefferson County (17081), Jefferson County ,38.2267348,-88.86469799999999,1.652
IL,156.5,244,111072, Jersey County (17083), Jersey County ,39.0704754,-90.37483540000001,1.565
IL,162.5,327,110202, Jo Daviess County (17085), Jo Daviess County ,42.3148804,-90.2244662,1.625
IL,166.5,153,63420, Johnson County (17087), Johnson County ,37.42037639999999,-88.90306,1.665
IL,145.4,3740,2642912, Kane County (17089), Kane County ,41.987884,-88.4016041,1.454
IL,193.2,1310,558035, Kankakee County (17091), Kankakee County ,41.1790977,-87.77633329999999,1.932
IL,158.3,725,614808, Kendall County (17093), Kendall County ,41.5507043,-88.4403883,1.5830000000000002
IL,173.4,671,257011, Knox County (17095), Knox County ,40.8776411,-90.2244662,1.734
IL,187.1,1453,555004, La Salle County (17099), La Salle County ,41.4363987,-88.94138650000001,1.871
IL,150.8,5523,3521725, Lake County (17097), Lake County ,42.3689363,-87.8271534,1.508
IL,178.2,192,81905, Lawrence County (17101), Lawrence County ,38.7157534,-87.77633329999999,1.7819999999999998
IL,185.3,458,173528, Lee County (17103), Lee County ,41.6789842,-89.3226954,1.8530000000000002
IL,188.7,479,183254, Livingston County (17105), Livingston County ,40.8688604,-88.55653099999999,1.8869999999999998
IL,214.8,430,146915, Logan County (17107), Logan County ,40.061338,-89.3226954,2.148
IL,184.4,1409,537409, Macon County (17115), Macon County ,39.8949055,-89.0179332,1.844
IL,185.2,629,229962, Macoupin County (17117), Macoupin County ,39.2375268,-89.9253233,1.8519999999999999
IL,184.5,3134,1331208, Madison County (17119), Madison County ,38.9041402,-89.9253233,1.845
IL,212.1,577,191472, Marion County (17121), Marion County ,38.7313284,-88.86469799999999,2.121
IL,196.3,196,59559, Marshall County (17123), Marshall County ,40.9972934,-89.3606298,1.963
IL,205.5,229,69468, Mason County (17125), Mason County ,40.2271003,-89.9253233,2.055
IL,165.8,187,72914, Massac County (17127), Massac County ,37.2478298,-88.7493998,1.6580000000000001
IL,175.3,334,156666, McDonough County (17109), McDonough County ,40.3885122,-90.6773046,1.7530000000000001
IL,159.5,2555,1537960, McHenry County (17111), McHenry County ,42.3039993,-88.4016041,1.595
IL,157.3,1317,868311, McLean County (17113), McLean County ,40.5478429,-88.86469799999999,1.5730000000000002
IL,201.9,168,62116, Menard County (17129), Menard County ,40.0221361,-89.81303559999999,2.019
IL,185.4,232,78941, Mercer County (17131), Mercer County ,41.1985037,-90.6773046,1.854
IL,131.8,294,168806, Monroe County (17133), Monroe County ,38.2742526,-90.1869644,1.318
IL,192.0,414,145807, Montgomery County (17135), Montgomery County ,39.2363688,-89.4742177,1.92
IL,184.5,450,173151, Morgan County (17137), Morgan County ,39.7341219,-90.2244662,1.845
IL,192.4,190,73592, Moultrie County (17139), Moultrie County ,39.6020543,-88.59517509999999,1.9240000000000002
IL,172.8,607,257995, Ogle County (17141), Ogle County ,41.9969811,-89.3226954,1.7280000000000002
IL,173.0,1969,930339, Peoria County (17143), Peoria County ,40.7156396,-89.77553379999999,1.73
IL,176.9,253,107458, Perry County (17145), Perry County ,38.0612022,-89.3226954,1.7690000000000001
IL,179.4,206,82168, Piatt County (17147), Piatt County ,40.0543526,-88.55653099999999,1.794
IL,182.0,221,79228, Pike County (17149), Pike County ,39.5662363,-90.8294002,1.82
IL,185.3,73,21484, Pope County (17151), Pope County ,37.417132,-88.59517509999999,1.8530000000000002
IL,208.7,92,28480, Pulaski County (17153), Pulaski County ,37.2512419,-89.1324866,2.0869999999999997
IL,133.6,64,28846, Putnam County (17155), Putnam County ,41.238474,-89.28472510000002,1.3359999999999999
IL,177.1,408,163799, Randolph County (17157), Randolph County ,38.0629321,-89.77553379999999,1.771
IL,169.0,205,79648, Richland County (17159), Richland County ,38.7212791,-88.0900762,1.69
IL,167.0,1689,730585, Rock Island County (17161), Rock Island County ,41.39982089999999,-90.563609,1.67
IL,217.1,379,122047, Saline County (17165), Saline County ,37.7149675,-88.55653099999999,2.171
IL,177.6,2249,992088, Sangamon County (17167), Sangamon County ,39.7337353,-89.62516459999999,1.776
IL,202.7,117,35805, Schuyler County (17169), Schuyler County ,40.1844543,-90.6393702,2.0269999999999997
IL,203.6,75,25518, Scott County (17171), Scott County ,39.6094934,-90.4879916,2.036
IL,159.1,274,109560, Shelby County (17173), Shelby County ,39.3980704,-88.86469799999999,1.591
IL,181.7,2805,1323060, St. Clair County (17163), St. Clair County ,38.40081199999999,-89.9253233,1.817
IL,153.6,67,27780, Stark County (17175), Stark County ,41.0795661,-89.81303559999999,1.536
IL,164.0,599,229085, Stephenson County (17177), Stephenson County ,42.31448899999999,-89.62516459999999,1.64
IL,174.7,1582,673199, Tazewell County (17179), Tazewell County ,40.5522078,-89.4742177,1.7469999999999999
IL,201.7,260,86339, Union County (17181), Union County ,37.5086525,-89.28472510000002,2.017
IL,208.7,1115,395817, Vermilion County (17183), Vermilion County ,40.122469,-87.697554,2.0869999999999997
IL,164.6,146,57991, Wabash County (17185), Wabash County ,38.4226484,-87.8156715,1.646
IL,154.9,190,87328, Warren County (17187), Warren County ,40.8758777,-90.6773046,1.5490000000000002
IL,164.3,173,71195, Washington County (17189), Washington County ,38.3988869,-89.3226954,1.643
IL,171.2,218,82768, Wayne County (17191), Wayne County ,38.3899815,-88.4016041,1.712
IL,211.8,239,70896, White County (17193), White County ,38.0501137,-88.24611829999999,2.1180000000000003
IL,169.8,715,283814, Whiteside County (17195), Whiteside County ,41.7605503,-89.8505012,1.6980000000000002
IL,162.6,5281,3435049, Will County (17197), Will County ,41.5054724,-88.0900762,1.626
IL,189.9,859,336884, Williamson County (17199), Williamson County ,37.7183241,-88.86469799999999,1.899
IL,186.2,3375,1437785, Winnebago County (17201), Winnebago County ,42.3121109,-89.1705998,1.8619999999999999
IL,173.5,430,194659, Woodford County (17203), Woodford County ,40.7128889,-89.1705998,1.735
IN,173.1,348,174994, Adams County (18001), Adams County ,40.7249237,-84.8984775,1.7309999999999999
IN,171.5,3411,1838114, Allen County (18003), Allen County ,41.0932622,-85.02334599999999,1.715
IN,162.9,778,406369, Bartholomew County (18005), Bartholomew County ,39.206801,-85.8895551,1.629
IN,169.5,95,43427, Benton County (18007), Benton County ,40.644786,-87.3413599,1.695
IN,205.6,188,61173, Blackford County (18009), Blackford County ,40.49927840000001,-85.31362179999999,2.056
IN,169.1,542,314949, Boone County (18011), Boone County ,40.0106163,-86.49965460000001,1.6909999999999998
IN,166.1,189,74993, Brown County (18013), Brown County ,39.1749729,-86.17517590000001,1.661
IN,153.5,209,99951, Carroll County (18015), Carroll County ,40.542415,-86.5400674,1.535
IN,177.0,440,191057, Cass County (18017), Cass County ,40.8199089,-86.3376761,1.77
IN,175.5,1169,573845, Clark County (18019), Clark County ,38.4492903,-85.7256372,1.755
IN,205.2,356,131827, Clay County (18021), Clay County ,39.36862199999999,-87.14228949999999,2.052
IN,190.3,383,162030, Clinton County (18023), Clinton County ,40.3376924,-86.49965460000001,1.903
IN,179.1,132,52966, Crawford County (18025), Crawford County ,38.3054548,-86.4592091,1.791
IN,169.6,320,163820, Daviess County (18027), Daviess County ,38.7020241,-87.14228949999999,1.696
IN,183.5,471,212631, DeKalb County (18033), DeKalb County ,41.4138928,-85.02334599999999,1.835
IN,184.0,572,247676, Dearborn County (18029), Dearborn County ,39.1713075,-84.981754,1.84
IN,172.5,283,132198, Decatur County (18031), Decatur County ,39.3176186,-85.52002399999999,1.725
IN,180.2,1269,580123, Delaware County (18035), Delaware County ,40.2583533,-85.39627689999999,1.8019999999999998
IN,147.3,403,211801, Dubois County (18037), Dubois County ,38.357918,-86.8220341,1.473
IN,164.5,1815,1012693, Elkhart County (18039), Elkhart County ,41.6062253,-85.84862360000001,1.645
IN,186.4,309,117076, Fayette County (18041), Fayette County ,39.5920377,-85.14793639999999,1.864
IN,172.7,773,382280, Floyd County (18043), Floyd County ,38.2869276,-85.8895551,1.7269999999999999
IN,199.3,238,82960, Fountain County (18045), Fountain County ,40.22271970000001,-87.3347575,1.993
IN,177.0,261,114444, Franklin County (18047), Franklin County ,39.4233977,-85.0649071,1.77
IN,186.9,262,101413, Fulton County (18049), Fulton County ,41.0204161,-86.2970998,1.869
IN,163.1,355,168011, Gibson County (18051), Gibson County ,38.3338249,-87.5791287,1.631
IN,203.6,938,337634, Grant County (18053), Grant County ,40.4730605,-85.684578,2.036
IN,190.1,427,162207, Greene County (18055), Greene County ,39.0321796,-86.9824288,1.901
IN,131.4,1791,1547294, Hamilton County (18057), Hamilton County ,40.0372797,-86.05296039999999,1.314
IN,180.9,767,363762, Hancock County (18059), Hancock County ,39.8249915,-85.84862360000001,1.8090000000000002
IN,183.8,459,197200, Harrison County (18061), Harrison County ,38.1701136,-86.17517590000001,1.838
IN,164.8,1309,791212, Hendricks County (18063), Hendricks County ,39.8064942,-86.5400674,1.6480000000000001
IN,194.8,645,242992, Henry County (18065), Henry County ,39.9704844,-85.35496499999999,1.9480000000000002
IN,185.9,1039,412305, Howard County (18067), Howard County ,40.4482767,-86.1344697,1.859
IN,169.8,400,182430, Huntington County (18069), Huntington County ,40.7911217,-85.52002399999999,1.6980000000000002
IN,211.2,571,219016, Jackson County (18071), Jackson County ,38.8794321,-86.05296039999999,2.112
IN,185.9,385,167302, Jasper County (18073), Jasper County ,41.0040981,-87.14228949999999,1.859
IN,215.9,289,105466, Jay County (18075), Jay County ,40.4465288,-85.02334599999999,2.1590000000000003
IN,205.1,417,161374, Jefferson County (18077), Jefferson County ,38.7751543,-85.47880649999999,2.051
IN,197.7,321,139249, Jennings County (18079), Jennings County ,38.9914998,-85.684578,1.9769999999999999
IN,167.0,1357,747010, Johnson County (18081), Johnson County ,39.4637793,-86.1344697,1.67
IN,189.5,459,188204, Knox County (18083), Knox County ,38.6665815,-87.42075179999999,1.895
IN,169.2,788,392557, Kosciusko County (18085), Kosciusko County ,41.2864679,-85.84862360000001,1.692
IN,155.2,297,193468, LaGrange County (18087), LaGrange County ,41.62887020000001,-85.39627689999999,1.5519999999999998
IN,182.3,1293,554176, LaPorte County (18091), LaPorte County ,41.4775131,-86.8220341,1.8230000000000002
IN,181.4,5373,2441601, Lake County (18089), Lake County ,41.4897279,-87.30161319999999,1.814
IN,178.4,576,228321, Lawrence County (18093), Lawrence County ,38.8518863,-86.49965460000001,1.784
IN,183.5,1554,648184, Madison County (18095), Madison County ,40.1469349,-85.684578,1.835
IN,184.4,8487,4697291, Marion County (18097), Marion County ,39.83618999999999,-86.17517590000001,1.844
IN,160.2,482,233648, Marshall County (18099), Marshall County ,41.303028,-86.3376761,1.6019999999999999
IN,201.1,144,51065, Martin County (18101), Martin County ,38.6937856,-86.8220341,2.011
IN,165.2,381,180105, Miami County (18103), Miami County ,40.77009899999999,-86.05296039999999,1.652
IN,155.8,1045,722164, Monroe County (18105), Monroe County ,39.1851445,-86.49965460000001,1.558
IN,161.9,412,191167, Montgomery County (18107), Montgomery County ,40.019879,-86.8220341,1.619
IN,186.3,776,347879, Morgan County (18109), Morgan County ,39.51168089999999,-86.3376761,1.8630000000000002
IN,160.3,157,70105, Newton County (18111), Newton County ,40.9703076,-87.42075179999999,1.6030000000000002
IN,176.7,483,236974, Noble County (18113), Noble County ,41.4277391,-85.35496499999999,1.767
IN,172.4,76,29585, Ohio County (18115), Ohio County ,38.9417259,-84.9609464,1.724
IN,215.9,287,98071, Orange County (18117), Orange County ,38.5169004,-86.49965460000001,2.1590000000000003
IN,198.7,285,104704, Owen County (18119), Owen County ,39.3603429,-86.8220341,1.9869999999999999
IN,147.2,173,85294, Parke County (18121), Parke County ,39.69929459999999,-87.14228949999999,1.472
IN,191.0,249,96021, Perry County (18123), Perry County ,38.0159043,-86.6611083,1.91
IN,172.4,154,62146, Pike County (18125), Pike County ,38.4110583,-87.2618328,1.724
IN,171.5,1671,837102, Porter County (18127), Porter County ,41.5248577,-87.10237459999999,1.715
IN,169.6,278,127961, Posey County (18129), Posey County ,38.0020359,-87.89424509999999,1.696
IN,178.2,161,63771, Pulaski County (18131), Pulaski County ,40.9957383,-86.8220341,1.7819999999999998
IN,195.0,438,187610, Putnam County (18133), Putnam County ,39.690997,-86.8220341,1.95
IN,180.3,330,126144, Randolph County (18135), Randolph County ,40.12045320000001,-85.02334599999999,1.8030000000000002
IN,174.6,316,141897, Ripley County (18137), Ripley County ,39.0986811,-85.2308414,1.746
IN,176.5,202,83852, Rush County (18139), Rush County ,39.6481768,-85.52002399999999,1.765
IN,222.2,326,118585, Scott County (18143), Scott County ,38.7008005,-85.7256372,2.222
IN,185.4,512,221752, Shelby County (18145), Shelby County ,39.4952877,-85.84862360000001,1.854
IN,155.6,222,103064, Spencer County (18147), Spencer County ,37.9832621,-87.0224442,1.556
IN,175.1,2762,1342414, St. Joseph County (18141), St. Joseph County ,41.6228085,-86.3376761,1.751
IN,212.8,327,114907, Starke County (18149), Starke County ,41.2715616,-86.6207943,2.128
IN,177.9,421,172180, Steuben County (18151), Steuben County ,41.6115471,-84.981754,1.7790000000000001
IN,203.1,266,104408, Sullivan County (18153), Sullivan County ,39.08431220000001,-87.42075179999999,2.031
IN,185.6,126,52997, Switzerland County (18155), Switzerland County ,38.8419394,-85.0649071,1.8559999999999999
IN,158.7,1268,935400, Tippecanoe County (18157), Tippecanoe County ,40.34697310000001,-86.8220341,1.587
IN,172.7,186,76509, Tipton County (18159), Tipton County ,40.2825661,-86.05296039999999,1.7269999999999999
IN,197.4,95,36035, Union County (18161), Union County ,39.6637751,-84.8984775,1.974
IN,174.5,1994,907171, Vanderburgh County (18163), Vanderburgh County ,38.0806099,-87.5791287,1.745
IN,199.1,223,78176, Vermillion County (18165), Vermillion County ,39.8512139,-87.48020679999999,1.9909999999999999
IN,185.3,1168,539320, Vigo County (18167), Vigo County ,39.4165382,-87.42075179999999,1.8530000000000002
IN,180.6,417,159144, Wabash County (18169), Wabash County ,40.8033875,-85.84862360000001,1.806
IN,164.0,100,41340, Warren County (18171), Warren County ,40.319245,-87.3413599,1.64
IN,153.9,586,307928, Warrick County (18173), Warrick County ,38.0736703,-87.2618328,1.5390000000000001
IN,198.2,333,138978, Washington County (18175), Washington County ,38.6744747,-86.17517590000001,1.982
IN,185.7,867,334912, Wayne County (18177), Wayne County ,39.831882,-84.981754,1.857
IN,167.3,313,139247, Wells County (18179), Wells County ,40.7778348,-85.1894045,1.673
IN,174.4,308,121358, White County (18181), White County ,40.6765551,-86.9824288,1.744
IN,153.5,341,167456, Whitley County (18183), Whitley County ,41.1136133,-85.52002399999999,1.535
KS,188.7,179,63771, Allen County (20001), Allen County ,37.9435853,-95.3102505,1.8869999999999998
KS,173.9,109,39226, Anderson County (20003), Anderson County ,38.2809328,-95.3102505,1.739
KS,191.5,201,82310, Atchison County (20005), Atchison County ,39.5701137,-95.35208759999999,1.915
KS,138.8,52,23872, Barber County (20007), Barber County ,37.2299788,-98.7481167,1.3880000000000001
KS,156.9,295,135299, Barton County (20009), Barton County ,38.3613844,-98.7651482,1.569
KS,200.0,208,73694, Bourbon County (20011), Bourbon County ,37.7957092,-94.81059549999999,2.0
KS,159.8,117,48634, Brown County (20013), Brown County ,39.770047,-95.4777811,1.598
KS,173.5,657,331252, Butler County (20015), Butler County ,37.8649441,-96.83509989999999,1.735
KS,234.6,53,13286, Chase County (20017), Chase County ,38.3007661,-96.57833869999999,2.346
KS,177.4,57,17056, Chautauqua County (20019), Chautauqua County ,37.1738044,-96.2800864,1.774
KS,192.8,270,102537, Cherokee County (20021), Cherokee County ,37.1142482,-94.81059549999999,1.9280000000000002
KS,92.7,25,13398, Cheyenne County (20023), Cheyenne County ,39.7877848,-101.7979613,0.927
KS,204.2,34,10436, Clark County (20025), Clark County ,37.3158895,-99.8124935,2.042
KS,163.5,111,41102, Clay County (20027), Clay County ,39.34791999999999,-97.179026,1.635
KS,193.4,135,45927, Cloud County (20029), Cloud County ,39.4795571,-97.69822719999999,1.9340000000000002
KS,167.9,103,41624, Coffey County (20031), Coffey County ,38.2570639,-95.81428849999999,1.679
KS,204.0,33,9310, Comanche County (20033), Comanche County ,37.1894543,-99.2785583,2.04
KS,182.0,428,178899, Cowley County (20035), Cowley County ,37.2660235,-96.9209135,1.82
KS,196.7,437,195769, Crawford County (20037), Crawford County ,37.45579900000001,-94.81059549999999,1.9669999999999999
KS,189.2,56,14441, Decatur County (20039), Decatur County ,39.74803680000001,-100.5296115,1.892
KS,176.3,253,95734, Dickinson County (20041), Dickinson County ,38.85059770000001,-97.179026,1.7630000000000001
KS,187.6,102,38876, Doniphan County (20043), Doniphan County ,39.8245628,-95.18492189999999,1.876
KS,149.6,756,589868, Douglas County (20045), Douglas County ,38.9107835,-95.26844369999999,1.496
KS,197.6,47,14742, Edwards County (20047), Edwards County ,37.865958,-99.2785583,1.976
KS,162.7,44,12933, Elk County (20049), Elk County ,37.3936365,-96.15269850000001,1.6269999999999998
KS,154.3,252,144712, Ellis County (20051), Ellis County ,38.8683549,-99.2785583,1.5430000000000001
KS,192.8,97,31635, Ellsworth County (20053), Ellsworth County ,38.615225,-98.2212979,1.9280000000000002
KS,140.5,217,185269, Finney County (20055), Finney County ,38.0625252,-100.8903099,1.405
KS,149.7,229,173433, Ford County (20057), Ford County ,37.6540069,-99.8124935,1.4969999999999999
KS,187.6,288,127914, Franklin County (20059), Franklin County ,38.6165913,-95.3102505,1.876
KS,201.7,225,178682, Geary County (20061), Geary County ,38.9984685,-96.79223549999999,2.017
KS,128.6,29,13493, Gove County (20063), Gove County ,38.9271279,-100.5296115,1.286
KS,117.4,30,12820, Graham County (20065), Graham County ,39.3198302,-99.8124935,1.1740000000000002
KS,194.4,70,38596, Grant County (20067), Grant County ,37.5245985,-101.2523792,1.944
KS,106.7,37,30134, Gray County (20069), Gray County ,37.6840811,-100.439656,1.067
KS,237.5,19,6394, Greeley County (20071), Greeley County ,38.4738028,-101.7979613,2.375
KS,186.8,98,31082, Greenwood County (20073), Greenwood County ,37.9025905,-96.15269850000001,1.868
KS,179.5,25,13093, Hamilton County (20075), Hamilton County ,37.9741668,-101.7979613,1.795
KS,178.7,87,28699, Harper County (20077), Harper County ,37.1096002,-98.04651849999999,1.787
KS,150.1,374,173283, Harvey County (20079), Harvey County ,38.0025215,-97.35165579999999,1.501
KS,158.7,36,20364, Haskell County (20081), Haskell County ,37.5588285,-100.8903099,1.587
KS,173.6,29,9350, Hodgeman County (20083), Hodgeman County ,38.1429747,-99.99122539999999,1.736
KS,145.9,132,66621, Jackson County (20085), Jackson County ,39.4241422,-95.81428849999999,1.459
KS,164.2,204,94257, Jefferson County (20087), Jefferson County ,39.2827652,-95.3102505,1.642
KS,150.0,48,14800, Jewell County (20089), Jewell County ,39.7720227,-98.2212979,1.5
KS,133.4,4099,2896367, Johnson County (20091), Johnson County ,38.845412,-94.8520636,1.334
KS,154.8,35,19629, Kearny County (20093), Kearny County ,38.0281402,-101.2523792,1.548
KS,233.5,131,37843, Kingman County (20095), Kingman County ,37.6071593,-98.2212979,2.335
KS,154.3,30,12649, Kiowa County (20097), Kiowa County ,37.52851649999999,-99.2785583,1.5430000000000001
KS,186.4,262,102741, Labette County (20099), Labette County ,37.2639041,-95.3102505,1.864
KS,248.4,37,8133, Lane County (20101), Lane County ,38.4294888,-100.5296115,2.484
KS,174.5,729,396927, Leavenworth County (20103), Leavenworth County ,39.1713075,-95.01824599999999,1.745
KS,136.6,38,15620, Lincoln County (20105), Lincoln County ,39.1135788,-98.2212979,1.3659999999999999
KS,182.8,130,47967, Linn County (20107), Linn County ,38.1339574,-94.81059549999999,1.828
KS,175.3,40,13981, Logan County (20109), Logan County ,38.9504774,-101.1617356,1.7530000000000001
KS,168.5,313,166577, Lyon County (20111), Lyon County ,38.4078037,-96.15269850000001,1.685
KS,174.6,176,60415, Marion County (20115), Marion County ,38.349424,-97.179026,1.746
KS,146.1,120,49238, Marshall County (20117), Marshall County ,39.717719,-96.49297969999999,1.4609999999999999
KS,174.1,382,144023, McPherson County (20113), McPherson County ,38.3164433,-97.69822719999999,1.7409999999999999
KS,175.7,51,21446, Meade County (20119), Meade County ,37.2698449,-100.3497895,1.757
KS,151.9,316,164787, Miami County (20121), Miami County ,38.6381689,-94.81059549999999,1.5190000000000001
KS,151.2,83,31269, Mitchell County (20123), Mitchell County ,39.443669,-98.2212979,1.5119999999999998
KS,175.0,419,167178, Montgomery County (20125), Montgomery County ,37.240253,-95.81428849999999,1.75
KS,137.8,69,28029, Morris County (20127), Morris County ,38.7144832,-96.663812,1.3780000000000001
KS,171.8,36,14639, Morton County (20129), Morton County ,37.1333387,-101.7979613,1.7180000000000002
KS,170.7,135,50460, Nemaha County (20131), Nemaha County ,39.7451077,-95.9832577,1.7069999999999999
KS,181.4,210,81056, Neosho County (20133), Neosho County ,37.6045688,-95.3102505,1.814
KS,197.2,55,15022, Ness County (20135), Ness County ,38.4769509,-99.99122539999999,1.972
KS,112.5,49,27616, Norton County (20137), Norton County ,39.7959566,-99.99122539999999,1.125
KS,181.7,205,79548, Osage County (20139), Osage County ,38.6009003,-95.6457951,1.817
KS,197.0,68,18342, Osborne County (20141), Osborne County ,39.4051157,-98.7481167,1.97
KS,163.0,69,29751, Ottawa County (20143), Ottawa County ,39.14938360000001,-97.69822719999999,1.63
KS,181.9,94,33840, Pawnee County (20145), Pawnee County ,38.2017581,-99.2785583,1.819
KS,165.9,73,27283, Phillips County (20147), Phillips County ,39.766638,-99.3673084,1.659
KS,165.4,206,116021, Pottawatomie County (20149), Pottawatomie County ,39.3976344,-96.3226072,1.6540000000000001
KS,173.3,122,48306, Pratt County (20151), Pratt County ,37.5691719,-98.7481167,1.733
KS,177.6,44,12598, Rawlins County (20153), Rawlins County ,39.8600904,-101.0711758,1.776
KS,159.6,728,317234, Reno County (20155), Reno County ,37.9569553,-98.04651849999999,1.5959999999999999
KS,176.6,80,23531, Republic County (20157), Republic County ,39.807989,-97.69822719999999,1.766
KS,145.2,100,49255, Rice County (20159), Rice County ,38.2808698,-98.2212979,1.452
KS,145.4,369,379715, Riley County (20161), Riley County ,39.3686475,-96.83509989999999,1.454
KS,154.0,65,25770, Rooks County (20163), Rooks County ,39.3638509,-99.2785583,1.54
KS,147.3,45,15560, Rush County (20165), Rush County ,38.5358968,-99.2785583,1.473
KS,143.9,87,34951, Russell County (20167), Russell County ,38.9094717,-98.7481167,1.439
KS,181.7,647,276245, Saline County (20169), Saline County ,38.8174853,-97.69822719999999,1.817
KS,171.2,59,24756, Scott County (20171), Scott County ,38.562531,-100.8903099,1.712
KS,164.2,4546,2553231, Sedgwick County (20173), Sedgwick County ,37.6537367,-97.5247243,1.642
KS,141.2,130,115017, Seward County (20175), Seward County ,37.221014,-100.8903099,1.412
KS,171.1,1994,892578, Shawnee County (20177), Shawnee County ,39.0928449,-95.81428849999999,1.7109999999999999
KS,139.3,31,12496, Sheridan County (20179), Sheridan County ,39.3470831,-100.439656,1.393
KS,171.9,77,30022, Sherman County (20181), Sherman County ,39.29821889999999,-101.7979613,1.719
KS,183.2,66,18409, Smith County (20183), Smith County ,39.7333849,-98.7481167,1.8319999999999999
KS,136.7,46,21231, Stafford County (20185), Stafford County ,38.0749046,-98.7481167,1.367
KS,117.9,17,10502, Stanton County (20187), Stanton County ,37.6390381,-101.7979613,1.179
KS,179.0,57,28681, Stevens County (20189), Stevens County ,37.186894,-101.2523792,1.79
KS,164.9,271,116578, Sumner County (20191), Sumner County ,37.2236052,-97.6114217,1.649
KS,133.5,69,39342, Thomas County (20193), Thomas County ,39.3702882,-101.0711758,1.335
KS,181.2,52,14443, Trego County (20195), Trego County ,38.9900316,-99.8124935,1.8119999999999998
KS,143.0,70,34567, Wabaunsee County (20197), Wabaunsee County ,38.9092089,-96.15269850000001,1.43
KS,217.6,24,7594, Wallace County (20199), Wallace County ,38.9697127,-101.7979613,2.176
KS,150.9,81,27832, Washington County (20201), Washington County ,39.8413319,-97.179026,1.5090000000000001
KS,143.3,24,10799, Wichita County (20203), Wichita County ,38.5102583,-101.4339148,1.433
KS,221.5,148,44327, Wilson County (20205), Wilson County ,37.5808413,-95.81428849999999,2.215
KS,203.0,51,15883, Woodson County (20207), Woodson County ,37.9197853,-95.81428849999999,2.03
KS,191.6,1499,817383, Wyandotte County (20209), Wyandotte County ,39.0986811,-94.7691586,1.916
KY,159.7,200,96117, Adair County (21001), Adair County ,37.076403,-85.31362179999999,1.597
KY,185.1,237,103180, Allen County (21003), Allen County ,36.7650471,-86.21584969999999,1.851
KY,208.5,271,110145, Anderson County (21005), Anderson County ,37.998648,-84.981754,2.085
KY,177.1,103,40725, Ballard County (21007), Ballard County ,37.0359869,-89.0179332,1.771
KY,200.9,563,217175, Barren County (21009), Barren County ,36.9676836,-85.84862360000001,2.009
KY,226.1,175,60929, Bath County (21011), Bath County ,38.1068164,-83.7199136,2.261
KY,226.9,419,137420, Bell County (21013), Bell County ,36.741122,-83.63484299999999,2.269
KY,164.2,1009,638624, Boone County (21015), Boone County ,38.9940572,-84.7315563,1.642
KY,178.4,235,100573, Bourbon County (21017), Bourbon County ,38.2170752,-84.2278796,1.784
KY,192.7,650,242131, Boyd County (21019), Boyd County ,38.3833265,-82.6915429,1.9269999999999998
KY,168.8,338,149097, Boyle County (21021), Boyle County ,37.6526034,-84.8150781,1.6880000000000002
KY,230.9,123,41710, Bracken County (21023), Bracken County ,38.7117016,-84.05902900000001,2.309
KY,264.9,219,66386, Breathitt County (21025), Breathitt County ,37.5359616,-83.33618799999999,2.6489999999999996
KY,193.9,267,100060, Breckinridge County (21027), Breckinridge County ,37.7982002,-86.4592091,1.939
KY,173.2,761,393162, Bullitt County (21029), Bullitt County ,37.9842107,-85.684578,1.732
KY,201.3,169,63655, Butler County (21031), Butler County ,37.2086395,-86.7013894,2.013
KY,183.2,170,63805, Caldwell County (21033), Caldwell County ,37.1501019,-87.89424509999999,1.8319999999999999
KY,172.5,407,193182, Calloway County (21035), Calloway County ,36.6402766,-88.28504199999999,1.725
KY,184.5,983,459273, Campbell County (21037), Campbell County ,38.8951891,-84.3962535,1.845
KY,207.3,79,24395, Carlisle County (21039), Carlisle County ,36.8206685,-88.9796776,2.073
KY,252.5,160,53666, Carroll County (21041), Carroll County ,38.6748355,-85.0649071,2.525
KY,205.7,369,137052, Carter County (21043), Carter County ,38.3204714,-83.03613759999999,2.057
KY,210.0,227,79105, Casey County (21045), Casey County ,37.3157449,-84.8984775,2.1
KY,179.1,583,363336, Christian County (21047), Christian County ,36.8410586,-87.460397,1.791
KY,217.1,488,178671, Clark County (21049), Clark County ,37.959945,-84.14351359999999,2.171
KY,257.2,300,104198, Clay County (21051), Clay County ,37.1738044,-83.7199136,2.572
KY,212.9,149,51032, Clinton County (21053), Clinton County ,36.7263899,-85.14793639999999,2.129
KY,192.5,128,45678, Crittenden County (21055), Crittenden County ,37.3673645,-88.0900762,1.925
KY,223.1,119,33700, Cumberland County (21057), Cumberland County ,36.7776446,-85.35496499999999,2.231
KY,187.3,1169,496921, Daviess County (21059), Daviess County ,37.7307984,-87.10237459999999,1.8730000000000002
KY,186.3,160,60396, Edmonson County (21061), Edmonson County ,37.1941682,-86.21584969999999,1.8630000000000002
KY,203.3,104,37630, Elliott County (21063), Elliott County ,38.1575088,-83.12200740000002,2.033
KY,245.9,232,71853, Estill County (21065), Estill County ,37.6975384,-83.9744262,2.459
KY,164.7,2563,1579898, Fayette County (21067), Fayette County ,38.06064780000001,-84.4802606,1.6469999999999998
KY,226.4,203,72503, Fleming County (21069), Fleming County ,38.3987633,-83.67739279999999,2.2640000000000002
KY,241.4,568,187271, Floyd County (21071), Floyd County ,37.5455463,-82.7778579,2.414
KY,195.5,614,250160, Franklin County (21073), Franklin County ,38.2481018,-84.8984775,1.955
KY,208.1,97,31319, Fulton County (21075), Fulton County ,36.5630482,-89.1324866,2.081
KY,252.8,119,43252, Gallatin County (21077), Gallatin County ,38.7295069,-84.87763919999999,2.528
KY,199.2,231,86078, Garrard County (21079), Garrard County ,37.6413234,-84.56414699999999,1.992
KY,223.4,279,124009, Grant County (21081), Grant County ,38.6565245,-84.6479124,2.234
KY,189.6,468,186553, Graves County (21083), Graves County ,36.6887728,-88.7108964,1.896
KY,223.6,370,130528, Grayson County (21085), Grayson County ,37.4554962,-86.3782198,2.2359999999999998
KY,178.0,144,55239, Green County (21087), Green County ,37.2570117,-85.56121,1.78
KY,205.6,541,180018, Greenup County (21089), Greenup County ,38.5665695,-82.95015579999999,2.056
KY,202.5,104,43465, Hancock County (21091), Hancock County ,37.8280909,-86.761749,2.025
KY,193.8,1092,539134, Hardin County (21093), Hardin County ,37.6565708,-86.0121573,1.9380000000000002
KY,272.3,481,137746, Harlan County (21095), Harlan County ,36.8890304,-83.2077645,2.7230000000000003
KY,211.5,254,93131, Harrison County (21097), Harrison County ,38.4333045,-84.3542049,2.115
KY,239.2,280,92693, Hart County (21099), Hart County ,37.3101304,-85.84862360000001,2.392
KY,200.3,591,231465, Henderson County (21101), Henderson County ,37.7415161,-87.5791287,2.003
KY,208.0,206,78405, Henry County (21103), Henry County ,38.4268385,-85.14793639999999,2.08
KY,178.2,68,23124, Hickman County (21105), Hickman County ,36.6482184,-88.9796776,1.7819999999999998
KY,209.7,635,229693, Hopkins County (21107), Hopkins County ,37.3153093,-87.5791287,2.097
KY,212.8,176,66814, Jackson County (21109), Jackson County ,37.4023274,-84.01674229999999,2.128
KY,180.5,8188,3824679, Jefferson County (21111), Jefferson County ,38.1938097,-85.64348700000001,1.805
